[
  {
    "id": "i_FWONQD1ZBqrNE2b-M5Ug",
    "name": "Talula's Garden",
    "review_count": 2239,
    "rating": 4.5,
    "price_range": "$$$",
    "location": {
      "city": "Philadelphia",
      "state": "PA"
    },
    "image_url": "https://s3-media3.fl.yelpcdn.com/bphoto/dMuRtBOlomx1EKRydogyQg/o.jpg",
    "alias": "newamerican",
    "title": "New American"
  },
  {
    "id": "i_FWONQD1ZBqrNE2b-M5Ug",
    "name": "Talula's Garden",
    "review_count": 2239,
    "rating": 4.5,
    "price_range": "$$$",
    "location": {
      "city": "Philadelphia",
      "state": "PA"
    },
    "image_url": "https://s3-media3.fl.yelpcdn.com/bphoto/dMuRtBOlomx1EKRydogyQg/o.jpg",
    "alias": "newamerican",
    "title": "New American"
  },
  {
    "id": "6ajnOk0GcY9xbb5Ocaw8Gw",
    "name": "Barbuzzo",
    "review_count": 3246,
    "rating": 4.5,
    "price_range": "$$",
    "location": {
      "city": "Philadelphia",
      "state": "PA"
    },
    "image_url": "https://s3-media2.fl.yelpcdn.com/bphoto/DORymf8MBaKV4aemHUL0Xw/o.jpg",
    "alias": "mediterranean",
    "title": "Mediterranean"
  },
  {
    "id": "6ajnOk0GcY9xbb5Ocaw8Gw",
    "name": "Barbuzzo",
    "review_count": 3246,
    "rating": 4.5,
    "price_range": "$$",
    "location": {
      "city": "Philadelphia",
      "state": "PA"
    },
    "image_url": "https://s3-media2.fl.yelpcdn.com/bphoto/DORymf8MBaKV4aemHUL0Xw/o.jpg",
    "alias": "mediterranean",
    "title": "Mediterranean"
  },
  {
    "id": "ctHjyadbDQAtUFfkcAFEHw",
    "name": "Zahav",
    "review_count": 3409,
    "rating": 4.5,
    "price_range": "$$$$",
    "location": {
      "city": "Philadelphia",
      "state": "PA"
    },
    "image_url": "https://s3-media2.fl.yelpcdn.com/bphoto/it0vY1UBcjXyIDbg54c0vQ/o.jpg",
    "alias": "mideastern",
    "title": "Middle Eastern"
  },
  {
    "id": "ctHjyadbDQAtUFfkcAFEHw",
    "name": "Zahav",
    "review_count": 3409,
    "rating": 4.5,
    "price_range": "$$$$",
    "location": {
      "city": "Philadelphia",
      "state": "PA"
    },
    "image_url": "https://s3-media2.fl.yelpcdn.com/bphoto/it0vY1UBcjXyIDbg54c0vQ/o.jpg",
    "alias": "mideastern",
    "title": "Middle Eastern"
  },
  {
    "id": "vUrTGX_7HxqeoQ_6QCVz6g",
    "name": "Suraya",
    "review_count": 1464,
    "rating": 4.5,
    "price_range": "$$$",
    "location": {
      "city": "Philadelphia",
      "state": "PA"
    },
    "image_url": "https://s3-media1.fl.yelpcdn.com/bphoto/H6vumhULeuBQESdnGKxq0w/o.jpg",
    "alias": "lebanese",
    "title": "Lebanese"
  },
  {
    "id": "vUrTGX_7HxqeoQ_6QCVz6g",
    "name": "Suraya",
    "review_count": 1464,
    "rating": 4.5,
    "price_range": "$$$",
    "location": {
      "city": "Philadelphia",
      "state": "PA"
    },
    "image_url": "https://s3-media1.fl.yelpcdn.com/bphoto/H6vumhULeuBQESdnGKxq0w/o.jpg",
    "alias": "lebanese",
    "title": "Lebanese"
  },
  {
    "id": "dChRGpit9fM_kZK5pafNyA",
    "name": "The Love",
    "review_count": 977,
    "rating": 4.5,
    "price_range": "$$$",
    "location": {
      "city": "Philadelphia",
      "state": "PA"
    },
    "image_url": "https://s3-media3.fl.yelpcdn.com/bphoto/TtLahAvqLQUtWGZe4RXImg/o.jpg",
    "alias": "newamerican",
    "title": "New American"
  },
  {
    "id": "dChRGpit9fM_kZK5pafNyA",
    "name": "The Love",
    "review_count": 977,
    "rating": 4.5,
    "price_range": "$$$",
    "location": {
      "city": "Philadelphia",
      "state": "PA"
    },
    "image_url": "https://s3-media3.fl.yelpcdn.com/bphoto/TtLahAvqLQUtWGZe4RXImg/o.jpg",
    "alias": "newamerican",
    "title": "New American"
  },
  {
    "id": "mtvT7uRey3F395STFRM1Tg",
    "name": "Vernick Food & Drink",
    "review_count": 1096,
    "rating": 4.5,
    "price_range": "$$$$",
    "location": {
      "city": "Philadelphia",
      "state": "PA"
    },
    "image_url": "https://s3-media2.fl.yelpcdn.com/bphoto/G2cqe7Z1QGWH7he-rfto1w/o.jpg",
    "alias": "newamerican",
    "title": "New American"
  },
  {
    "id": "mtvT7uRey3F395STFRM1Tg",
    "name": "Vernick Food & Drink",
    "review_count": 1096,
    "rating": 4.5,
    "price_range": "$$$$",
    "location": {
      "city": "Philadelphia",
      "state": "PA"
    },
    "image_url": "https://s3-media2.fl.yelpcdn.com/bphoto/G2cqe7Z1QGWH7he-rfto1w/o.jpg",
    "alias": "newamerican",
    "title": "New American"
  },
  {
    "id": "8pqdJjefYq-a9IBSJJmKwA",
    "name": "The Dandelion",
    "review_count": 2847,
    "rating": 4.0,
    "price_range": "$$",
    "location": {
      "city": "Philadelphia",
      "state": "PA"
    },
    "image_url": "https://s3-media3.fl.yelpcdn.com/bphoto/NQxNOUXGznTVrzn85tdO_g/o.jpg",
    "alias": "gastropubs",
    "title": "Gastropubs"
  },
  {
    "id": "8pqdJjefYq-a9IBSJJmKwA",
    "name": "The Dandelion",
    "review_count": 2847,
    "rating": 4.0,
    "price_range": "$$",
    "location": {
      "city": "Philadelphia",
      "state": "PA"
    },
    "image_url": "https://s3-media3.fl.yelpcdn.com/bphoto/NQxNOUXGznTVrzn85tdO_g/o.jpg",
    "alias": "gastropubs",
    "title": "Gastropubs"
  },
  {
    "id": "-cEFKAznWmI0cledNOIQ7w",
    "name": "Gran Caffe L'Aquila",
    "review_count": 1452,
    "rating": 4.5,
    "price_range": "$$",
    "location": {
      "city": "Philadelphia",
      "state": "PA"
    },
    "image_url": "https://s3-media2.fl.yelpcdn.com/bphoto/qMOQt2WsZJy1-Dq1oCRwAA/o.jpg",
    "alias": "coffee",
    "title": "Coffee & Tea"
  },
  {
    "id": "-cEFKAznWmI0cledNOIQ7w",
    "name": "Gran Caffe L'Aquila",
    "review_count": 1452,
    "rating": 4.5,
    "price_range": "$$",
    "location": {
      "city": "Philadelphia",
      "state": "PA"
    },
    "image_url": "https://s3-media2.fl.yelpcdn.com/bphoto/qMOQt2WsZJy1-Dq1oCRwAA/o.jpg",
    "alias": "coffee",
    "title": "Coffee & Tea"
  },
  {
    "id": "iksVwRfpWymIUUFqw0tXpw",
    "name": "Chubby Cattle",
    "review_count": 1500,
    "rating": 4.5,
    "price_range": "$$",
    "location": {
      "city": "Philadelphia",
      "state": "PA"
    },
    "image_url": "https://s3-media4.fl.yelpcdn.com/bphoto/wT3kQpHDP_xnqyAvOKZtoQ/o.jpg",
    "alias": "chinese",
    "title": "Chinese"
  },
  {
    "id": "iksVwRfpWymIUUFqw0tXpw",
    "name": "Chubby Cattle",
    "review_count": 1500,
    "rating": 4.5,
    "price_range": "$$",
    "location": {
      "city": "Philadelphia",
      "state": "PA"
    },
    "image_url": "https://s3-media4.fl.yelpcdn.com/bphoto/wT3kQpHDP_xnqyAvOKZtoQ/o.jpg",
    "alias": "chinese",
    "title": "Chinese"
  },
  {
    "id": "6_T2xzR74JqGCTPefAD8Tw",
    "name": "Morimoto",
    "review_count": 2111,
    "rating": 4.5,
    "price_range": "$$$$",
    "location": {
      "city": "Philadelphia",
      "state": "PA"
    },
    "image_url": "https://s3-media3.fl.yelpcdn.com/bphoto/vqJvdgXQ5jsQkPVSwkr8Qg/o.jpg",
    "alias": "japanese",
    "title": "Japanese"
  },
  {
    "id": "6_T2xzR74JqGCTPefAD8Tw",
    "name": "Morimoto",
    "review_count": 2111,
    "rating": 4.5,
    "price_range": "$$$$",
    "location": {
      "city": "Philadelphia",
      "state": "PA"
    },
    "image_url": "https://s3-media3.fl.yelpcdn.com/bphoto/vqJvdgXQ5jsQkPVSwkr8Qg/o.jpg",
    "alias": "japanese",
    "title": "Japanese"
  },
  {
    "id": "kZ1q0K13tFYG_ZJrVvsJHA",
    "name": "Sampan",
    "review_count": 2235,
    "rating": 4.0,
    "price_range": "$$",
    "location": {
      "city": "Philadelphia",
      "state": "PA"
    },
    "image_url": "https://s3-media2.fl.yelpcdn.com/bphoto/fQLSgn5ydXZ26572-2_FyA/o.jpg",
    "alias": "asianfusion",
    "title": "Asian Fusion"
  },
  {
    "id": "kZ1q0K13tFYG_ZJrVvsJHA",
    "name": "Sampan",
    "review_count": 2235,
    "rating": 4.0,
    "price_range": "$$",
    "location": {
      "city": "Philadelphia",
      "state": "PA"
    },
    "image_url": "https://s3-media2.fl.yelpcdn.com/bphoto/fQLSgn5ydXZ26572-2_FyA/o.jpg",
    "alias": "asianfusion",
    "title": "Asian Fusion"
  },
  {
    "id": "j-qtdD55OLfSqfsWuQTDJg",
    "name": "Parc",
    "review_count": 3220,
    "rating": 4.0,
    "price_range": "$$$",
    "location": {
      "city": "Philadelphia",
      "state": "PA"
    },
    "image_url": "https://s3-media3.fl.yelpcdn.com/bphoto/0vGzdKssl2CEbecvtOGxHw/o.jpg",
    "alias": "french",
    "title": "French"
  },
  {
    "id": "j-qtdD55OLfSqfsWuQTDJg",
    "name": "Parc",
    "review_count": 3220,
    "rating": 4.0,
    "price_range": "$$$",
    "location": {
      "city": "Philadelphia",
      "state": "PA"
    },
    "image_url": "https://s3-media3.fl.yelpcdn.com/bphoto/0vGzdKssl2CEbecvtOGxHw/o.jpg",
    "alias": "french",
    "title": "French"
  },
  {
    "id": "S_WoTTevlkauq7b2Un9NOQ",
    "name": "Wilder",
    "review_count": 260,
    "rating": 4.5,
    "price_range": null,
    "location": {
      "city": "Philadelphia",
      "state": "PA"
    },
    "image_url": "https://s3-media4.fl.yelpcdn.com/bphoto/jVA-HuQG_DdoHfeu10MSJw/o.jpg",
    "alias": "pizza",
    "title": "Pizza"
  },
  {
    "id": "S_WoTTevlkauq7b2Un9NOQ",
    "name": "Wilder",
    "review_count": 260,
    "rating": 4.5,
    "price_range": null,
    "location": {
      "city": "Philadelphia",
      "state": "PA"
    },
    "image_url": "https://s3-media4.fl.yelpcdn.com/bphoto/jVA-HuQG_DdoHfeu10MSJw/o.jpg",
    "alias": "pizza",
    "title": "Pizza"
  },
  {
    "id": "lKU_kljhbEQKIPaM1Zbqiw",
    "name": "Little Nonna's",
    "review_count": 1370,
    "rating": 4.0,
    "price_range": "$$",
    "location": {
      "city": "Philadelphia",
      "state": "PA"
    },
    "image_url": "https://s3-media3.fl.yelpcdn.com/bphoto/WhgUEaRI1T9PN3M-ty3pNA/o.jpg",
    "alias": "italian",
    "title": "Italian"
  },
  {
    "id": "lKU_kljhbEQKIPaM1Zbqiw",
    "name": "Little Nonna's",
    "review_count": 1370,
    "rating": 4.0,
    "price_range": "$$",
    "location": {
      "city": "Philadelphia",
      "state": "PA"
    },
    "image_url": "https://s3-media3.fl.yelpcdn.com/bphoto/WhgUEaRI1T9PN3M-ty3pNA/o.jpg",
    "alias": "italian",
    "title": "Italian"
  },
  {
    "id": "9PZxjhTIU7OgPIzuGi89Ew",
    "name": "El Vez",
    "review_count": 3578,
    "rating": 4.0,
    "price_range": "$$",
    "location": {
      "city": "Philadelphia",
      "state": "PA"
    },
    "image_url": "https://s3-media3.fl.yelpcdn.com/bphoto/LU9n7XGaqdRiVwEfeEAcmw/o.jpg",
    "alias": "mexican",
    "title": "Mexican"
  },
  {
    "id": "9PZxjhTIU7OgPIzuGi89Ew",
    "name": "El Vez",
    "review_count": 3578,
    "rating": 4.0,
    "price_range": "$$",
    "location": {
      "city": "Philadelphia",
      "state": "PA"
    },
    "image_url": "https://s3-media3.fl.yelpcdn.com/bphoto/LU9n7XGaqdRiVwEfeEAcmw/o.jpg",
    "alias": "mexican",
    "title": "Mexican"
  },
  {
    "id": "ytynqOUb3hjKeJfRj5Tshw",
    "name": "Reading Terminal Market",
    "review_count": 6727,
    "rating": 4.5,
    "price_range": "$$",
    "location": {
      "city": "Philadelphia",
      "state": "PA"
    },
    "image_url": "https://s3-media1.fl.yelpcdn.com/bphoto/2h_XVqLpMyBgF6x9zDPUUA/o.jpg",
    "alias": "food_court",
    "title": "Food Court"
  },
  {
    "id": "ytynqOUb3hjKeJfRj5Tshw",
    "name": "Reading Terminal Market",
    "review_count": 6727,
    "rating": 4.5,
    "price_range": "$$",
    "location": {
      "city": "Philadelphia",
      "state": "PA"
    },
    "image_url": "https://s3-media1.fl.yelpcdn.com/bphoto/2h_XVqLpMyBgF6x9zDPUUA/o.jpg",
    "alias": "food_court",
    "title": "Food Court"
  },
  {
    "id": "KscVqYYG7ziAroZhfNb0Ng",
    "name": "South",
    "review_count": 680,
    "rating": 4.0,
    "price_range": "$$$",
    "location": {
      "city": "Philadelphia",
      "state": "PA"
    },
    "image_url": "https://s3-media1.fl.yelpcdn.com/bphoto/woyShzUjW2MHGjbVNCK7bA/o.jpg",
    "alias": "southern",
    "title": "Southern"
  },
  {
    "id": "KscVqYYG7ziAroZhfNb0Ng",
    "name": "South",
    "review_count": 680,
    "rating": 4.0,
    "price_range": "$$$",
    "location": {
      "city": "Philadelphia",
      "state": "PA"
    },
    "image_url": "https://s3-media1.fl.yelpcdn.com/bphoto/woyShzUjW2MHGjbVNCK7bA/o.jpg",
    "alias": "southern",
    "title": "Southern"
  },
  {
    "id": "S8ZFYEgMejpChID8tzKo9A",
    "name": "Amada",
    "review_count": 2273,
    "rating": 4.0,
    "price_range": "$$",
    "location": {
      "city": "Philadelphia",
      "state": "PA"
    },
    "image_url": "https://s3-media1.fl.yelpcdn.com/bphoto/MEkBU1U5896zU2Gn8vrbcw/o.jpg",
    "alias": "tapas",
    "title": "Tapas Bars"
  },
  {
    "id": "S8ZFYEgMejpChID8tzKo9A",
    "name": "Amada",
    "review_count": 2273,
    "rating": 4.0,
    "price_range": "$$",
    "location": {
      "city": "Philadelphia",
      "state": "PA"
    },
    "image_url": "https://s3-media1.fl.yelpcdn.com/bphoto/MEkBU1U5896zU2Gn8vrbcw/o.jpg",
    "alias": "tapas",
    "title": "Tapas Bars"
  },
  {
    "id": "u0Bt7uvvj7LAjAdiMtrhug",
    "name": "Laser Wolf",
    "review_count": 405,
    "rating": 4.5,
    "price_range": "$$$$",
    "location": {
      "city": "Philadelphia",
      "state": "PA"
    },
    "image_url": "https://s3-media2.fl.yelpcdn.com/bphoto/bWFAizuYEi9shiNMSZIipA/o.jpg",
    "alias": "mideastern",
    "title": "Middle Eastern"
  },
  {
    "id": "u0Bt7uvvj7LAjAdiMtrhug",
    "name": "Laser Wolf",
    "review_count": 405,
    "rating": 4.5,
    "price_range": "$$$$",
    "location": {
      "city": "Philadelphia",
      "state": "PA"
    },
    "image_url": "https://s3-media2.fl.yelpcdn.com/bphoto/bWFAizuYEi9shiNMSZIipA/o.jpg",
    "alias": "mideastern",
    "title": "Middle Eastern"
  },
  {
    "id": "CYSPKiVdoPX3erovujnE9Q",
    "name": "Harp & Crown",
    "review_count": 1160,
    "rating": 4.0,
    "price_range": "$$",
    "location": {
      "city": "Philadelphia",
      "state": "PA"
    },
    "image_url": "https://s3-media1.fl.yelpcdn.com/bphoto/OAHq_RvHPWlAVw03iDB_Ow/o.jpg",
    "alias": "newamerican",
    "title": "New American"
  },
  {
    "id": "CYSPKiVdoPX3erovujnE9Q",
    "name": "Harp & Crown",
    "review_count": 1160,
    "rating": 4.0,
    "price_range": "$$",
    "location": {
      "city": "Philadelphia",
      "state": "PA"
    },
    "image_url": "https://s3-media1.fl.yelpcdn.com/bphoto/OAHq_RvHPWlAVw03iDB_Ow/o.jpg",
    "alias": "newamerican",
    "title": "New American"
  },
  {
    "id": "0oSSjekU-3GR8gselReWnA",
    "name": "Butcher and Singer",
    "review_count": 1460,
    "rating": 4.5,
    "price_range": "$$$$",
    "location": {
      "city": "Philadelphia",
      "state": "PA"
    },
    "image_url": "https://s3-media4.fl.yelpcdn.com/bphoto/54_xSXVyKzhUniv9tYXWvA/o.jpg",
    "alias": "tradamerican",
    "title": "American"
  },
  {
    "id": "0oSSjekU-3GR8gselReWnA",
    "name": "Butcher and Singer",
    "review_count": 1460,
    "rating": 4.5,
    "price_range": "$$$$",
    "location": {
      "city": "Philadelphia",
      "state": "PA"
    },
    "image_url": "https://s3-media4.fl.yelpcdn.com/bphoto/54_xSXVyKzhUniv9tYXWvA/o.jpg",
    "alias": "tradamerican",
    "title": "American"
  },
  {
    "id": "hUmHwBQtGg0iH-PZakQJDw",
    "name": "Wm Mulherin's Sons",
    "review_count": 717,
    "rating": 4.5,
    "price_range": "$$$",
    "location": {
      "city": "Philadelphia",
      "state": "PA"
    },
    "image_url": "https://s3-media2.fl.yelpcdn.com/bphoto/JZ7R_Hy0lK0LrRO36SHSPg/o.jpg",
    "alias": "pizza",
    "title": "Pizza"
  },
  {
    "id": "hUmHwBQtGg0iH-PZakQJDw",
    "name": "Wm Mulherin's Sons",
    "review_count": 717,
    "rating": 4.5,
    "price_range": "$$$",
    "location": {
      "city": "Philadelphia",
      "state": "PA"
    },
    "image_url": "https://s3-media2.fl.yelpcdn.com/bphoto/JZ7R_Hy0lK0LrRO36SHSPg/o.jpg",
    "alias": "pizza",
    "title": "Pizza"
  },
  {
    "id": "pXRrRf8fDv6yU3xp1E25hA",
    "name": "Bud & Marilyn's",
    "review_count": 1462,
    "rating": 4.0,
    "price_range": "$$",
    "location": {
      "city": "Philadelphia",
      "state": "PA"
    },
    "image_url": "https://s3-media3.fl.yelpcdn.com/bphoto/6vza04ya0Ar-3fi1mk1Dyw/o.jpg",
    "alias": "tradamerican",
    "title": "American"
  },
  {
    "id": "pXRrRf8fDv6yU3xp1E25hA",
    "name": "Bud & Marilyn's",
    "review_count": 1462,
    "rating": 4.0,
    "price_range": "$$",
    "location": {
      "city": "Philadelphia",
      "state": "PA"
    },
    "image_url": "https://s3-media3.fl.yelpcdn.com/bphoto/6vza04ya0Ar-3fi1mk1Dyw/o.jpg",
    "alias": "tradamerican",
    "title": "American"
  },
  {
    "id": "6CUkqed0rhHtFwQ2i7Otsw",
    "name": "Barcelona Wine Bar Passyunk",
    "review_count": 789,
    "rating": 4.5,
    "price_range": "$$$",
    "location": {
      "city": "Philadelphia",
      "state": "PA"
    },
    "image_url": "https://s3-media3.fl.yelpcdn.com/bphoto/ktTsHOH1ebWfQ97aTyo9vw/o.jpg",
    "alias": "tapasmallplates",
    "title": "Tapas/Small Plates"
  },
  {
    "id": "6CUkqed0rhHtFwQ2i7Otsw",
    "name": "Barcelona Wine Bar Passyunk",
    "review_count": 789,
    "rating": 4.5,
    "price_range": "$$$",
    "location": {
      "city": "Philadelphia",
      "state": "PA"
    },
    "image_url": "https://s3-media3.fl.yelpcdn.com/bphoto/ktTsHOH1ebWfQ97aTyo9vw/o.jpg",
    "alias": "tapasmallplates",
    "title": "Tapas/Small Plates"
  },
  {
    "id": "Ipkx4Sa7ybn8C6LtTqTztw",
    "name": "Double Knot",
    "review_count": 1392,
    "rating": 4.5,
    "price_range": "$$$",
    "location": {
      "city": "Philadelphia",
      "state": "PA"
    },
    "image_url": "https://s3-media1.fl.yelpcdn.com/bphoto/PSWURNw-A4kM6KVpdRHwzg/o.jpg",
    "alias": "sushi",
    "title": "Sushi Bars"
  },
  {
    "id": "Ipkx4Sa7ybn8C6LtTqTztw",
    "name": "Double Knot",
    "review_count": 1392,
    "rating": 4.5,
    "price_range": "$$$",
    "location": {
      "city": "Philadelphia",
      "state": "PA"
    },
    "image_url": "https://s3-media1.fl.yelpcdn.com/bphoto/PSWURNw-A4kM6KVpdRHwzg/o.jpg",
    "alias": "sushi",
    "title": "Sushi Bars"
  },
  {
    "id": "of-GVqY0G_UDHXT9Xg_ADQ",
    "name": "Charlie Was a Sinner",
    "review_count": 1207,
    "rating": 4.0,
    "price_range": "$$",
    "location": {
      "city": "Philadelphia",
      "state": "PA"
    },
    "image_url": "https://s3-media4.fl.yelpcdn.com/bphoto/okBsScMODgPBZ6_S22LOrQ/o.jpg",
    "alias": "cocktailbars",
    "title": "Cocktail Bars"
  },
  {
    "id": "of-GVqY0G_UDHXT9Xg_ADQ",
    "name": "Charlie Was a Sinner",
    "review_count": 1207,
    "rating": 4.0,
    "price_range": "$$",
    "location": {
      "city": "Philadelphia",
      "state": "PA"
    },
    "image_url": "https://s3-media4.fl.yelpcdn.com/bphoto/okBsScMODgPBZ6_S22LOrQ/o.jpg",
    "alias": "cocktailbars",
    "title": "Cocktail Bars"
  },
  {
    "id": "v45E6gg6MrAziTepkiWByA",
    "name": "Harper's Garden",
    "review_count": 738,
    "rating": 4.0,
    "price_range": "$$",
    "location": {
      "city": "Philadelphia",
      "state": "PA"
    },
    "image_url": "https://s3-media4.fl.yelpcdn.com/bphoto/NqyB3EySRc8lujB95opMVw/o.jpg",
    "alias": "newamerican",
    "title": "New American"
  },
  {
    "id": "v45E6gg6MrAziTepkiWByA",
    "name": "Harper's Garden",
    "review_count": 738,
    "rating": 4.0,
    "price_range": "$$",
    "location": {
      "city": "Philadelphia",
      "state": "PA"
    },
    "image_url": "https://s3-media4.fl.yelpcdn.com/bphoto/NqyB3EySRc8lujB95opMVw/o.jpg",
    "alias": "newamerican",
    "title": "New American"
  },
  {
    "id": "2CDI713ATuxHfnB5b-sBdw",
    "name": "Vedge",
    "review_count": 1590,
    "rating": 4.5,
    "price_range": "$$$",
    "location": {
      "city": "Philadelphia",
      "state": "PA"
    },
    "image_url": "https://s3-media3.fl.yelpcdn.com/bphoto/Bbq2NLRtDxawTN8TGEtf2g/o.jpg",
    "alias": "vegan",
    "title": "Vegan"
  },
  {
    "id": "2CDI713ATuxHfnB5b-sBdw",
    "name": "Vedge",
    "review_count": 1590,
    "rating": 4.5,
    "price_range": "$$$",
    "location": {
      "city": "Philadelphia",
      "state": "PA"
    },
    "image_url": "https://s3-media3.fl.yelpcdn.com/bphoto/Bbq2NLRtDxawTN8TGEtf2g/o.jpg",
    "alias": "vegan",
    "title": "Vegan"
  },
  {
    "id": "wUnLSg_GKfEIQ5CQQ770_g",
    "name": "Vetri Cucina",
    "review_count": 545,
    "rating": 4.5,
    "price_range": "$$$$",
    "location": {
      "city": "Philadelphia",
      "state": "PA"
    },
    "image_url": "https://s3-media3.fl.yelpcdn.com/bphoto/04hFXpen1jUf-cW8qkpy3g/o.jpg",
    "alias": "italian",
    "title": "Italian"
  },
  {
    "id": "wUnLSg_GKfEIQ5CQQ770_g",
    "name": "Vetri Cucina",
    "review_count": 545,
    "rating": 4.5,
    "price_range": "$$$$",
    "location": {
      "city": "Philadelphia",
      "state": "PA"
    },
    "image_url": "https://s3-media3.fl.yelpcdn.com/bphoto/04hFXpen1jUf-cW8qkpy3g/o.jpg",
    "alias": "italian",
    "title": "Italian"
  },
  {
    "id": "uJZgom8HpK74xz8IojpT0A",
    "name": "Pizzeria Beddia",
    "review_count": 742,
    "rating": 4.0,
    "price_range": "$$",
    "location": {
      "city": "Philadelphia",
      "state": "PA"
    },
    "image_url": "https://s3-media1.fl.yelpcdn.com/bphoto/CltlyNX3EqDr6zLjEhuzPQ/o.jpg",
    "alias": "pizza",
    "title": "Pizza"
  },
  {
    "id": "uJZgom8HpK74xz8IojpT0A",
    "name": "Pizzeria Beddia",
    "review_count": 742,
    "rating": 4.0,
    "price_range": "$$",
    "location": {
      "city": "Philadelphia",
      "state": "PA"
    },
    "image_url": "https://s3-media1.fl.yelpcdn.com/bphoto/CltlyNX3EqDr6zLjEhuzPQ/o.jpg",
    "alias": "pizza",
    "title": "Pizza"
  },
  {
    "id": "poviu-6n3iaRE4gdQz6OYw",
    "name": "Oyster House",
    "review_count": 1590,
    "rating": 4.0,
    "price_range": "$$$",
    "location": {
      "city": "Philadelphia",
      "state": "PA"
    },
    "image_url": "https://s3-media3.fl.yelpcdn.com/bphoto/mCQfcCOhcOfzlfj6gAEQAA/o.jpg",
    "alias": "seafood",
    "title": "Seafood"
  },
  {
    "id": "poviu-6n3iaRE4gdQz6OYw",
    "name": "Oyster House",
    "review_count": 1590,
    "rating": 4.0,
    "price_range": "$$$",
    "location": {
      "city": "Philadelphia",
      "state": "PA"
    },
    "image_url": "https://s3-media3.fl.yelpcdn.com/bphoto/mCQfcCOhcOfzlfj6gAEQAA/o.jpg",
    "alias": "seafood",
    "title": "Seafood"
  },
  {
    "id": "p-MSh95si_sDdih94gyKuw",
    "name": "Forsythia",
    "review_count": 191,
    "rating": 4.5,
    "price_range": "$$$",
    "location": {
      "city": "Philadelphia",
      "state": "PA"
    },
    "image_url": "https://s3-media1.fl.yelpcdn.com/bphoto/m3opfRtc-7N72fKuaqnA2Q/o.jpg",
    "alias": "modern_european",
    "title": "Modern European"
  },
  {
    "id": "p-MSh95si_sDdih94gyKuw",
    "name": "Forsythia",
    "review_count": 191,
    "rating": 4.5,
    "price_range": "$$$",
    "location": {
      "city": "Philadelphia",
      "state": "PA"
    },
    "image_url": "https://s3-media1.fl.yelpcdn.com/bphoto/m3opfRtc-7N72fKuaqnA2Q/o.jpg",
    "alias": "modern_european",
    "title": "Modern European"
  },
  {
    "id": "eLbKuFpCtHEjCkoWkDDk7g",
    "name": "Trattoria Carina",
    "review_count": 339,
    "rating": 4.5,
    "price_range": "$$",
    "location": {
      "city": "Philadelphia",
      "state": "PA"
    },
    "image_url": "https://s3-media1.fl.yelpcdn.com/bphoto/t8-D1t_KeGRU0EOrLvaT2g/o.jpg",
    "alias": "italian",
    "title": "Italian"
  },
  {
    "id": "eLbKuFpCtHEjCkoWkDDk7g",
    "name": "Trattoria Carina",
    "review_count": 339,
    "rating": 4.5,
    "price_range": "$$",
    "location": {
      "city": "Philadelphia",
      "state": "PA"
    },
    "image_url": "https://s3-media1.fl.yelpcdn.com/bphoto/t8-D1t_KeGRU0EOrLvaT2g/o.jpg",
    "alias": "italian",
    "title": "Italian"
  },
  {
    "id": "hyFzDuyOWNG2rg5GYJ2wiQ",
    "name": "Alpen Rose",
    "review_count": 254,
    "rating": 4.5,
    "price_range": null,
    "location": {
      "city": "Philadelphia",
      "state": "PA"
    },
    "image_url": "https://s3-media3.fl.yelpcdn.com/bphoto/z7yQXGGzNHxLxxxEcw3kZg/o.jpg",
    "alias": "steak",
    "title": "Steakhouses"
  },
  {
    "id": "hyFzDuyOWNG2rg5GYJ2wiQ",
    "name": "Alpen Rose",
    "review_count": 254,
    "rating": 4.5,
    "price_range": null,
    "location": {
      "city": "Philadelphia",
      "state": "PA"
    },
    "image_url": "https://s3-media3.fl.yelpcdn.com/bphoto/z7yQXGGzNHxLxxxEcw3kZg/o.jpg",
    "alias": "steak",
    "title": "Steakhouses"
  },
  {
    "id": "wbDRmtxaKRpBOjutvV6TEA",
    "name": "Barclay Prime",
    "review_count": 894,
    "rating": 4.5,
    "price_range": "$$$$",
    "location": {
      "city": "Philadelphia",
      "state": "PA"
    },
    "image_url": "https://s3-media1.fl.yelpcdn.com/bphoto/KSBuz7rWAQR4wu9-vp37Qg/o.jpg",
    "alias": "steak",
    "title": "Steakhouses"
  },
  {
    "id": "wbDRmtxaKRpBOjutvV6TEA",
    "name": "Barclay Prime",
    "review_count": 894,
    "rating": 4.5,
    "price_range": "$$$$",
    "location": {
      "city": "Philadelphia",
      "state": "PA"
    },
    "image_url": "https://s3-media1.fl.yelpcdn.com/bphoto/KSBuz7rWAQR4wu9-vp37Qg/o.jpg",
    "alias": "steak",
    "title": "Steakhouses"
  },
  {
    "id": "saVXla5i8TjE51S5uCaf6w",
    "name": "Steak 48",
    "review_count": 290,
    "rating": 4.0,
    "price_range": "$$$$",
    "location": {
      "city": "Philadelphia",
      "state": "PA"
    },
    "image_url": "https://s3-media4.fl.yelpcdn.com/bphoto/Q66TvQneNF7_FQSvg5qfAQ/o.jpg",
    "alias": "steak",
    "title": "Steakhouses"
  },
  {
    "id": "saVXla5i8TjE51S5uCaf6w",
    "name": "Steak 48",
    "review_count": 290,
    "rating": 4.0,
    "price_range": "$$$$",
    "location": {
      "city": "Philadelphia",
      "state": "PA"
    },
    "image_url": "https://s3-media4.fl.yelpcdn.com/bphoto/Q66TvQneNF7_FQSvg5qfAQ/o.jpg",
    "alias": "steak",
    "title": "Steakhouses"
  },
  {
    "id": "Sv1MEZP-mMfp8SmE0hwYEA",
    "name": "Terakawa Ramen",
    "review_count": 1948,
    "rating": 4.5,
    "price_range": "$$",
    "location": {
      "city": "Philadelphia",
      "state": "PA"
    },
    "image_url": "https://s3-media3.fl.yelpcdn.com/bphoto/2UcBQRwLPKpyGSMqZlNvGA/o.jpg",
    "alias": "ramen",
    "title": "Ramen"
  },
  {
    "id": "Sv1MEZP-mMfp8SmE0hwYEA",
    "name": "Terakawa Ramen",
    "review_count": 1948,
    "rating": 4.5,
    "price_range": "$$",
    "location": {
      "city": "Philadelphia",
      "state": "PA"
    },
    "image_url": "https://s3-media3.fl.yelpcdn.com/bphoto/2UcBQRwLPKpyGSMqZlNvGA/o.jpg",
    "alias": "ramen",
    "title": "Ramen"
  },
  {
    "id": "xdc0TbKkHMZN3N82oeq2XA",
    "name": "Via Locusta",
    "review_count": 314,
    "rating": 4.5,
    "price_range": "$$$",
    "location": {
      "city": "Philadelphia",
      "state": "PA"
    },
    "image_url": "https://s3-media1.fl.yelpcdn.com/bphoto/ZAxXrlqfwqYnU7PPb68UKA/o.jpg",
    "alias": "italian",
    "title": "Italian"
  },
  {
    "id": "xdc0TbKkHMZN3N82oeq2XA",
    "name": "Via Locusta",
    "review_count": 314,
    "rating": 4.5,
    "price_range": "$$$",
    "location": {
      "city": "Philadelphia",
      "state": "PA"
    },
    "image_url": "https://s3-media1.fl.yelpcdn.com/bphoto/ZAxXrlqfwqYnU7PPb68UKA/o.jpg",
    "alias": "italian",
    "title": "Italian"
  },
  {
    "id": "Mwc3n5Psw9wRaQ22vZWDYQ",
    "name": "Bar Hygge",
    "review_count": 487,
    "rating": 4.5,
    "price_range": "$$",
    "location": {
      "city": "Philadelphia",
      "state": "PA"
    },
    "image_url": "https://s3-media1.fl.yelpcdn.com/bphoto/p2HmAUrTmDbexS-bnTAF-Q/o.jpg",
    "alias": "comfortfood",
    "title": "Comfort Food"
  },
  {
    "id": "Mwc3n5Psw9wRaQ22vZWDYQ",
    "name": "Bar Hygge",
    "review_count": 487,
    "rating": 4.5,
    "price_range": "$$",
    "location": {
      "city": "Philadelphia",
      "state": "PA"
    },
    "image_url": "https://s3-media1.fl.yelpcdn.com/bphoto/p2HmAUrTmDbexS-bnTAF-Q/o.jpg",
    "alias": "comfortfood",
    "title": "Comfort Food"
  },
  {
    "id": "K7KHmHzxNwzqiijSJeKe_A",
    "name": "Cafe La Maude",
    "review_count": 1789,
    "rating": 4.5,
    "price_range": "$$",
    "location": {
      "city": "Philadelphia",
      "state": "PA"
    },
    "image_url": "https://s3-media2.fl.yelpcdn.com/bphoto/cPQpTg-zjqdoT7NbUSHybg/o.jpg",
    "alias": "cafes",
    "title": "Cafes"
  },
  {
    "id": "K7KHmHzxNwzqiijSJeKe_A",
    "name": "Cafe La Maude",
    "review_count": 1789,
    "rating": 4.5,
    "price_range": "$$",
    "location": {
      "city": "Philadelphia",
      "state": "PA"
    },
    "image_url": "https://s3-media2.fl.yelpcdn.com/bphoto/cPQpTg-zjqdoT7NbUSHybg/o.jpg",
    "alias": "cafes",
    "title": "Cafes"
  },
  {
    "id": "Wtr51cNrv1pYyIRg_IawYQ",
    "name": "The Victor Cafe",
    "review_count": 527,
    "rating": 4.5,
    "price_range": "$$",
    "location": {
      "city": "Philadelphia",
      "state": "PA"
    },
    "image_url": "https://s3-media3.fl.yelpcdn.com/bphoto/8YUxbVuBdtm3jPBmAJiRZw/o.jpg",
    "alias": "italian",
    "title": "Italian"
  },
  {
    "id": "Wtr51cNrv1pYyIRg_IawYQ",
    "name": "The Victor Cafe",
    "review_count": 527,
    "rating": 4.5,
    "price_range": "$$",
    "location": {
      "city": "Philadelphia",
      "state": "PA"
    },
    "image_url": "https://s3-media3.fl.yelpcdn.com/bphoto/8YUxbVuBdtm3jPBmAJiRZw/o.jpg",
    "alias": "italian",
    "title": "Italian"
  },
  {
    "id": "Qm8pSLYuVS7eIyOx5YsWBw",
    "name": "Glory Beer Bar & Kitchen",
    "review_count": 263,
    "rating": 4.5,
    "price_range": "$$",
    "location": {
      "city": "Philadelphia",
      "state": "PA"
    },
    "image_url": "https://s3-media3.fl.yelpcdn.com/bphoto/4pajIZ8ucFGw4vfCR6anCw/o.jpg",
    "alias": "beerbar",
    "title": "Beer Bar"
  },
  {
    "id": "Qm8pSLYuVS7eIyOx5YsWBw",
    "name": "Glory Beer Bar & Kitchen",
    "review_count": 263,
    "rating": 4.5,
    "price_range": "$$",
    "location": {
      "city": "Philadelphia",
      "state": "PA"
    },
    "image_url": "https://s3-media3.fl.yelpcdn.com/bphoto/4pajIZ8ucFGw4vfCR6anCw/o.jpg",
    "alias": "beerbar",
    "title": "Beer Bar"
  },
  {
    "id": "zvvl3c1FO3O3BZdhusficA",
    "name": "LMNO",
    "review_count": 225,
    "rating": 4.0,
    "price_range": null,
    "location": {
      "city": "Philadelphia",
      "state": "PA"
    },
    "image_url": "https://s3-media3.fl.yelpcdn.com/bphoto/i5R9RiZbhTRqN0bwfGzG0A/o.jpg",
    "alias": "mexican",
    "title": "Mexican"
  },
  {
    "id": "zvvl3c1FO3O3BZdhusficA",
    "name": "LMNO",
    "review_count": 225,
    "rating": 4.0,
    "price_range": null,
    "location": {
      "city": "Philadelphia",
      "state": "PA"
    },
    "image_url": "https://s3-media3.fl.yelpcdn.com/bphoto/i5R9RiZbhTRqN0bwfGzG0A/o.jpg",
    "alias": "mexican",
    "title": "Mexican"
  },
  {
    "id": "nIAbuktMEzVjT4P9pG89rQ",
    "name": "Buddakan",
    "review_count": 1742,
    "rating": 4.0,
    "price_range": "$$$",
    "location": {
      "city": "Philadelphia",
      "state": "PA"
    },
    "image_url": "https://s3-media4.fl.yelpcdn.com/bphoto/BGatPioOagd1EFERARkCow/o.jpg",
    "alias": "asianfusion",
    "title": "Asian Fusion"
  },
  {
    "id": "nIAbuktMEzVjT4P9pG89rQ",
    "name": "Buddakan",
    "review_count": 1742,
    "rating": 4.0,
    "price_range": "$$$",
    "location": {
      "city": "Philadelphia",
      "state": "PA"
    },
    "image_url": "https://s3-media4.fl.yelpcdn.com/bphoto/BGatPioOagd1EFERARkCow/o.jpg",
    "alias": "asianfusion",
    "title": "Asian Fusion"
  },
  {
    "id": "4_-IcMpkF_sBRHomWZHNzA",
    "name": "Bistrot La Minette",
    "review_count": 661,
    "rating": 4.5,
    "price_range": "$$$",
    "location": {
      "city": "Philadelphia",
      "state": "PA"
    },
    "image_url": "https://s3-media4.fl.yelpcdn.com/bphoto/KbmXItkhc0EtQfVc05Mj_g/o.jpg",
    "alias": "french",
    "title": "French"
  },
  {
    "id": "4_-IcMpkF_sBRHomWZHNzA",
    "name": "Bistrot La Minette",
    "review_count": 661,
    "rating": 4.5,
    "price_range": "$$$",
    "location": {
      "city": "Philadelphia",
      "state": "PA"
    },
    "image_url": "https://s3-media4.fl.yelpcdn.com/bphoto/KbmXItkhc0EtQfVc05Mj_g/o.jpg",
    "alias": "french",
    "title": "French"
  },
  {
    "id": "xQE1fuwKCXJEBcJgSSCNbw",
    "name": "Urban Farmer Philadelphia",
    "review_count": 748,
    "rating": 4.0,
    "price_range": "$$$",
    "location": {
      "city": "Philadelphia",
      "state": "PA"
    },
    "image_url": "https://s3-media1.fl.yelpcdn.com/bphoto/i30sXmLx8wi2ypOuW-pRJw/o.jpg",
    "alias": "tradamerican",
    "title": "American"
  },
  {
    "id": "xQE1fuwKCXJEBcJgSSCNbw",
    "name": "Urban Farmer Philadelphia",
    "review_count": 748,
    "rating": 4.0,
    "price_range": "$$$",
    "location": {
      "city": "Philadelphia",
      "state": "PA"
    },
    "image_url": "https://s3-media1.fl.yelpcdn.com/bphoto/i30sXmLx8wi2ypOuW-pRJw/o.jpg",
    "alias": "tradamerican",
    "title": "American"
  },
  {
    "id": "Ek6iqYGdYtyltAxVnhtJKQ",
    "name": "JG SkyHigh",
    "review_count": 253,
    "rating": 4.0,
    "price_range": null,
    "location": {
      "city": "Philadelphia",
      "state": "PA"
    },
    "image_url": "https://s3-media3.fl.yelpcdn.com/bphoto/cmeA2X5E42CNxZ1B1qlEHA/o.jpg",
    "alias": "bars",
    "title": "Bars"
  },
  {
    "id": "Ek6iqYGdYtyltAxVnhtJKQ",
    "name": "JG SkyHigh",
    "review_count": 253,
    "rating": 4.0,
    "price_range": null,
    "location": {
      "city": "Philadelphia",
      "state": "PA"
    },
    "image_url": "https://s3-media3.fl.yelpcdn.com/bphoto/cmeA2X5E42CNxZ1B1qlEHA/o.jpg",
    "alias": "bars",
    "title": "Bars"
  },
  {
    "id": "ORmx8v2fWefT1Ka54Up0MQ",
    "name": "Middle Child Clubhouse",
    "review_count": 171,
    "rating": 4.5,
    "price_range": "$$",
    "location": {
      "city": "Philadelphia",
      "state": "PA"
    },
    "image_url": "https://s3-media1.fl.yelpcdn.com/bphoto/TgMSVqc2UwQkxdm2Td3Bcw/o.jpg",
    "alias": "newamerican",
    "title": "New American"
  },
  {
    "id": "ORmx8v2fWefT1Ka54Up0MQ",
    "name": "Middle Child Clubhouse",
    "review_count": 171,
    "rating": 4.5,
    "price_range": "$$",
    "location": {
      "city": "Philadelphia",
      "state": "PA"
    },
    "image_url": "https://s3-media1.fl.yelpcdn.com/bphoto/TgMSVqc2UwQkxdm2Td3Bcw/o.jpg",
    "alias": "newamerican",
    "title": "New American"
  },
  {
    "id": "l4YoHcvnsK7ICDrTqL7EEg",
    "name": "Vernick Fish",
    "review_count": 195,
    "rating": 4.5,
    "price_range": "$$$",
    "location": {
      "city": "Philadelphia",
      "state": "PA"
    },
    "image_url": "https://s3-media1.fl.yelpcdn.com/bphoto/OcXfm2FVEu9ZGyKd9E3S6Q/o.jpg",
    "alias": "seafood",
    "title": "Seafood"
  },
  {
    "id": "l4YoHcvnsK7ICDrTqL7EEg",
    "name": "Vernick Fish",
    "review_count": 195,
    "rating": 4.5,
    "price_range": "$$$",
    "location": {
      "city": "Philadelphia",
      "state": "PA"
    },
    "image_url": "https://s3-media1.fl.yelpcdn.com/bphoto/OcXfm2FVEu9ZGyKd9E3S6Q/o.jpg",
    "alias": "seafood",
    "title": "Seafood"
  },
  {
    "id": "0mijbNf-7wiKJ9xto1pAyg",
    "name": "Spice Finch",
    "review_count": 439,
    "rating": 4.5,
    "price_range": "$$",
    "location": {
      "city": "Philadelphia",
      "state": "PA"
    },
    "image_url": "https://s3-media4.fl.yelpcdn.com/bphoto/bWiJ-G328TS5Nr1ZlpRYAg/o.jpg",
    "alias": "mediterranean",
    "title": "Mediterranean"
  },
  {
    "id": "0mijbNf-7wiKJ9xto1pAyg",
    "name": "Spice Finch",
    "review_count": 439,
    "rating": 4.5,
    "price_range": "$$",
    "location": {
      "city": "Philadelphia",
      "state": "PA"
    },
    "image_url": "https://s3-media4.fl.yelpcdn.com/bphoto/bWiJ-G328TS5Nr1ZlpRYAg/o.jpg",
    "alias": "mediterranean",
    "title": "Mediterranean"
  },
  {
    "id": "jS3affmkXWrBnidXA-DIfQ",
    "name": "Butcher Bar",
    "review_count": 766,
    "rating": 4.0,
    "price_range": "$$",
    "location": {
      "city": "Philadelphia",
      "state": "PA"
    },
    "image_url": "https://s3-media2.fl.yelpcdn.com/bphoto/O-AhSuDzYViRdvIEflBqIA/o.jpg",
    "alias": "steak",
    "title": "Steakhouses"
  },
  {
    "id": "jS3affmkXWrBnidXA-DIfQ",
    "name": "Butcher Bar",
    "review_count": 766,
    "rating": 4.0,
    "price_range": "$$",
    "location": {
      "city": "Philadelphia",
      "state": "PA"
    },
    "image_url": "https://s3-media2.fl.yelpcdn.com/bphoto/O-AhSuDzYViRdvIEflBqIA/o.jpg",
    "alias": "steak",
    "title": "Steakhouses"
  },
  {
    "id": "C9UylQTOh7uwZo4a7QhLyg",
    "name": "Friday Saturday Sunday",
    "review_count": 367,
    "rating": 4.5,
    "price_range": "$$$$",
    "location": {
      "city": "Philadelphia",
      "state": "PA"
    },
    "image_url": "https://s3-media2.fl.yelpcdn.com/bphoto/VETdIf4t5-uggQSO5onAYw/o.jpg",
    "alias": "newamerican",
    "title": "New American"
  },
  {
    "id": "C9UylQTOh7uwZo4a7QhLyg",
    "name": "Friday Saturday Sunday",
    "review_count": 367,
    "rating": 4.5,
    "price_range": "$$$$",
    "location": {
      "city": "Philadelphia",
      "state": "PA"
    },
    "image_url": "https://s3-media2.fl.yelpcdn.com/bphoto/VETdIf4t5-uggQSO5onAYw/o.jpg",
    "alias": "newamerican",
    "title": "New American"
  },
  {
    "id": "ntiIq1FNqduOyyowMFGh5A",
    "name": "Nan Zhou Hand Drawn Noodle House",
    "review_count": 2375,
    "rating": 4.0,
    "price_range": "$$",
    "location": {
      "city": "Philadelphia",
      "state": "PA"
    },
    "image_url": "https://s3-media1.fl.yelpcdn.com/bphoto/qnyDK-aROHA-vRhsO-NSVA/o.jpg",
    "alias": "chinese",
    "title": "Chinese"
  },
  {
    "id": "ntiIq1FNqduOyyowMFGh5A",
    "name": "Nan Zhou Hand Drawn Noodle House",
    "review_count": 2375,
    "rating": 4.0,
    "price_range": "$$",
    "location": {
      "city": "Philadelphia",
      "state": "PA"
    },
    "image_url": "https://s3-media1.fl.yelpcdn.com/bphoto/qnyDK-aROHA-vRhsO-NSVA/o.jpg",
    "alias": "chinese",
    "title": "Chinese"
  },
  {
    "id": "ILvJAuSP0sYWJKAQ-Goh4Q",
    "name": "Kensington Quarters",
    "review_count": 377,
    "rating": 4.0,
    "price_range": "$$$",
    "location": {
      "city": "Philadelphia",
      "state": "PA"
    },
    "image_url": "https://s3-media4.fl.yelpcdn.com/bphoto/gmlgJfT6QAxFu46887csJw/o.jpg",
    "alias": "tradamerican",
    "title": "American"
  },
  {
    "id": "ILvJAuSP0sYWJKAQ-Goh4Q",
    "name": "Kensington Quarters",
    "review_count": 377,
    "rating": 4.0,
    "price_range": "$$$",
    "location": {
      "city": "Philadelphia",
      "state": "PA"
    },
    "image_url": "https://s3-media4.fl.yelpcdn.com/bphoto/gmlgJfT6QAxFu46887csJw/o.jpg",
    "alias": "tradamerican",
    "title": "American"
  },
  {
    "id": "5AGVyIa1_XVUqXGbQXRmiQ",
    "name": "Heritage",
    "review_count": 331,
    "rating": 4.0,
    "price_range": "$$",
    "location": {
      "city": "Philadelphia",
      "state": "PA"
    },
    "image_url": "https://s3-media2.fl.yelpcdn.com/bphoto/xHklEfGR4OpQJIZzjUrUyA/o.jpg",
    "alias": "newamerican",
    "title": "New American"
  },
  {
    "id": "5AGVyIa1_XVUqXGbQXRmiQ",
    "name": "Heritage",
    "review_count": 331,
    "rating": 4.0,
    "price_range": "$$",
    "location": {
      "city": "Philadelphia",
      "state": "PA"
    },
    "image_url": "https://s3-media2.fl.yelpcdn.com/bphoto/xHklEfGR4OpQJIZzjUrUyA/o.jpg",
    "alias": "newamerican",
    "title": "New American"
  },
  {
    "id": "atZ_olNKXOG4rEr6mccN8g",
    "name": "Beiler's Bakery",
    "review_count": 1524,
    "rating": 4.5,
    "price_range": "$",
    "location": {
      "city": "Philadelphia",
      "state": "PA"
    },
    "image_url": "https://s3-media1.fl.yelpcdn.com/bphoto/-A4A-Kn4Pd0W4Dl8BDuIGA/o.jpg",
    "alias": "bakeries",
    "title": "Bakeries"
  },
  {
    "id": "atZ_olNKXOG4rEr6mccN8g",
    "name": "Beiler's Bakery",
    "review_count": 1524,
    "rating": 4.5,
    "price_range": "$",
    "location": {
      "city": "Philadelphia",
      "state": "PA"
    },
    "image_url": "https://s3-media1.fl.yelpcdn.com/bphoto/-A4A-Kn4Pd0W4Dl8BDuIGA/o.jpg",
    "alias": "bakeries",
    "title": "Bakeries"
  },
  {
    "id": "un0xxX785wfQfprryh0TjQ",
    "name": "Lucky's Last Chance",
    "review_count": 701,
    "rating": 4.5,
    "price_range": "$$",
    "location": {
      "city": "Philadelphia",
      "state": "PA"
    },
    "image_url": "https://s3-media1.fl.yelpcdn.com/bphoto/3mabgTYXobTGrV23cFgJnQ/o.jpg",
    "alias": "bars",
    "title": "Bars"
  },
  {
    "id": "un0xxX785wfQfprryh0TjQ",
    "name": "Lucky's Last Chance",
    "review_count": 701,
    "rating": 4.5,
    "price_range": "$$",
    "location": {
      "city": "Philadelphia",
      "state": "PA"
    },
    "image_url": "https://s3-media1.fl.yelpcdn.com/bphoto/3mabgTYXobTGrV23cFgJnQ/o.jpg",
    "alias": "bars",
    "title": "Bars"
  },
  {
    "id": "2SYEGA2fZLdzZQ9lmIfM5Q",
    "name": "Urban Village Brewing Co",
    "review_count": 281,
    "rating": 4.0,
    "price_range": "$$",
    "location": {
      "city": "Philadelphia",
      "state": "PA"
    },
    "image_url": "https://s3-media3.fl.yelpcdn.com/bphoto/Ezj1mK__Jptkoqi_WAj_NA/o.jpg",
    "alias": "breweries",
    "title": "Breweries"
  },
  {
    "id": "2SYEGA2fZLdzZQ9lmIfM5Q",
    "name": "Urban Village Brewing Co",
    "review_count": 281,
    "rating": 4.0,
    "price_range": "$$",
    "location": {
      "city": "Philadelphia",
      "state": "PA"
    },
    "image_url": "https://s3-media3.fl.yelpcdn.com/bphoto/Ezj1mK__Jptkoqi_WAj_NA/o.jpg",
    "alias": "breweries",
    "title": "Breweries"
  },
  {
    "id": "woTZpX92uByUgliPrh39Mg",
    "name": "Ocean Prime",
    "review_count": 588,
    "rating": 4.0,
    "price_range": "$$$$",
    "location": {
      "city": "Philadelphia",
      "state": "PA"
    },
    "image_url": "https://s3-media2.fl.yelpcdn.com/bphoto/V4xGb369piBYU6lG-B2k2A/o.jpg",
    "alias": "seafood",
    "title": "Seafood"
  },
  {
    "id": "woTZpX92uByUgliPrh39Mg",
    "name": "Ocean Prime",
    "review_count": 588,
    "rating": 4.0,
    "price_range": "$$$$",
    "location": {
      "city": "Philadelphia",
      "state": "PA"
    },
    "image_url": "https://s3-media2.fl.yelpcdn.com/bphoto/V4xGb369piBYU6lG-B2k2A/o.jpg",
    "alias": "seafood",
    "title": "Seafood"
  },
  {
    "id": "vtSisxaozZ7HWpBl_W7VaQ",
    "name": "Time",
    "review_count": 628,
    "rating": 4.0,
    "price_range": "$$",
    "location": {
      "city": "Philadelphia",
      "state": "PA"
    },
    "image_url": "https://s3-media2.fl.yelpcdn.com/bphoto/kbiMkyg_NWLGof3xi2EntQ/o.jpg",
    "alias": "newamerican",
    "title": "New American"
  },
  {
    "id": "vtSisxaozZ7HWpBl_W7VaQ",
    "name": "Time",
    "review_count": 628,
    "rating": 4.0,
    "price_range": "$$",
    "location": {
      "city": "Philadelphia",
      "state": "PA"
    },
    "image_url": "https://s3-media2.fl.yelpcdn.com/bphoto/kbiMkyg_NWLGof3xi2EntQ/o.jpg",
    "alias": "newamerican",
    "title": "New American"
  },
  {
    "id": "HDGTOksawKXEPeoCUrH96g",
    "name": "Jean-Georges Philadelphia",
    "review_count": 153,
    "rating": 4.0,
    "price_range": "$$$$",
    "location": {
      "city": "Philadelphia",
      "state": "PA"
    },
    "image_url": "https://s3-media1.fl.yelpcdn.com/bphoto/mNGO1js7pTZXymOKFNJQOw/o.jpg",
    "alias": "newamerican",
    "title": "New American"
  },
  {
    "id": "HDGTOksawKXEPeoCUrH96g",
    "name": "Jean-Georges Philadelphia",
    "review_count": 153,
    "rating": 4.0,
    "price_range": "$$$$",
    "location": {
      "city": "Philadelphia",
      "state": "PA"
    },
    "image_url": "https://s3-media1.fl.yelpcdn.com/bphoto/mNGO1js7pTZXymOKFNJQOw/o.jpg",
    "alias": "newamerican",
    "title": "New American"
  },
  {
    "id": "L0zMk5SXnqR0JLEe0XY20g",
    "name": "Sassafras Bar",
    "review_count": 405,
    "rating": 4.5,
    "price_range": "$$",
    "location": {
      "city": "Philadelphia",
      "state": "PA"
    },
    "image_url": "https://s3-media2.fl.yelpcdn.com/bphoto/yuH57sESNhxh9UevWvDyUw/o.jpg",
    "alias": "bars",
    "title": "Bars"
  },
  {
    "id": "L0zMk5SXnqR0JLEe0XY20g",
    "name": "Sassafras Bar",
    "review_count": 405,
    "rating": 4.5,
    "price_range": "$$",
    "location": {
      "city": "Philadelphia",
      "state": "PA"
    },
    "image_url": "https://s3-media2.fl.yelpcdn.com/bphoto/yuH57sESNhxh9UevWvDyUw/o.jpg",
    "alias": "bars",
    "title": "Bars"
  },
  {
    "id": "2wMTDTlHZksbwxc704TKcg",
    "name": "Pearl & Mary Oyster Bar",
    "review_count": 144,
    "rating": 4.5,
    "price_range": null,
    "location": {
      "city": "Philadelphia",
      "state": "PA"
    },
    "image_url": "https://s3-media2.fl.yelpcdn.com/bphoto/_SXq47XmwK5_mT5kVWIvyQ/o.jpg",
    "alias": "bars",
    "title": "Bars"
  },
  {
    "id": "2wMTDTlHZksbwxc704TKcg",
    "name": "Pearl & Mary Oyster Bar",
    "review_count": 144,
    "rating": 4.5,
    "price_range": null,
    "location": {
      "city": "Philadelphia",
      "state": "PA"
    },
    "image_url": "https://s3-media2.fl.yelpcdn.com/bphoto/_SXq47XmwK5_mT5kVWIvyQ/o.jpg",
    "alias": "bars",
    "title": "Bars"
  },
  {
    "id": "F8yozE3NWnImNApHO347gQ",
    "name": "Marrakesh",
    "review_count": 783,
    "rating": 4.5,
    "price_range": "$$$",
    "location": {
      "city": "Philadelphia",
      "state": "PA"
    },
    "image_url": "https://s3-media2.fl.yelpcdn.com/bphoto/bTIXDDvqTY-nr-ejeUGfcw/o.jpg",
    "alias": "moroccan",
    "title": "Moroccan"
  },
  {
    "id": "F8yozE3NWnImNApHO347gQ",
    "name": "Marrakesh",
    "review_count": 783,
    "rating": 4.5,
    "price_range": "$$$",
    "location": {
      "city": "Philadelphia",
      "state": "PA"
    },
    "image_url": "https://s3-media2.fl.yelpcdn.com/bphoto/bTIXDDvqTY-nr-ejeUGfcw/o.jpg",
    "alias": "moroccan",
    "title": "Moroccan"
  },
  {
    "id": "0RuvlgTnKFbX3IK0ZOOocA",
    "name": "Green Eggs Caf\u00e9",
    "review_count": 2931,
    "rating": 4.0,
    "price_range": "$$",
    "location": {
      "city": "Philadelphia",
      "state": "PA"
    },
    "image_url": "https://s3-media1.fl.yelpcdn.com/bphoto/8osV0DR1Hdx1QjMChdvkig/o.jpg",
    "alias": "breakfast_brunch",
    "title": "Breakfast & Brunch"
  },
  {
    "id": "0RuvlgTnKFbX3IK0ZOOocA",
    "name": "Green Eggs Caf\u00e9",
    "review_count": 2931,
    "rating": 4.0,
    "price_range": "$$",
    "location": {
      "city": "Philadelphia",
      "state": "PA"
    },
    "image_url": "https://s3-media1.fl.yelpcdn.com/bphoto/8osV0DR1Hdx1QjMChdvkig/o.jpg",
    "alias": "breakfast_brunch",
    "title": "Breakfast & Brunch"
  },
  {
    "id": "hxPnlWZmirx7neooZykmtg",
    "name": "Sutton's",
    "review_count": 91,
    "rating": 5.0,
    "price_range": "$$",
    "location": {
      "city": "Philadelphia",
      "state": "PA"
    },
    "image_url": "https://s3-media4.fl.yelpcdn.com/bphoto/rwV13gjf5iUWzvKeCT9b7w/o.jpg",
    "alias": "tradamerican",
    "title": "American"
  },
  {
    "id": "hxPnlWZmirx7neooZykmtg",
    "name": "Sutton's",
    "review_count": 91,
    "rating": 5.0,
    "price_range": "$$",
    "location": {
      "city": "Philadelphia",
      "state": "PA"
    },
    "image_url": "https://s3-media4.fl.yelpcdn.com/bphoto/rwV13gjf5iUWzvKeCT9b7w/o.jpg",
    "alias": "tradamerican",
    "title": "American"
  },
  {
    "id": "h7TO_IsmLCYmKKDVOOIeFw",
    "name": "Fat Salmon",
    "review_count": 1189,
    "rating": 4.5,
    "price_range": "$$",
    "location": {
      "city": "Philadelphia",
      "state": "PA"
    },
    "image_url": "https://s3-media1.fl.yelpcdn.com/bphoto/JvXPWBgEmejM59npMks9FA/o.jpg",
    "alias": "japanese",
    "title": "Japanese"
  },
  {
    "id": "h7TO_IsmLCYmKKDVOOIeFw",
    "name": "Fat Salmon",
    "review_count": 1189,
    "rating": 4.5,
    "price_range": "$$",
    "location": {
      "city": "Philadelphia",
      "state": "PA"
    },
    "image_url": "https://s3-media1.fl.yelpcdn.com/bphoto/JvXPWBgEmejM59npMks9FA/o.jpg",
    "alias": "japanese",
    "title": "Japanese"
  },
  {
    "id": "617w8MQE3z1szmLvs0WfCw",
    "name": "Bar Bomb\u00f3n",
    "review_count": 832,
    "rating": 4.0,
    "price_range": "$$",
    "location": {
      "city": "Philadelphia",
      "state": "PA"
    },
    "image_url": "https://s3-media3.fl.yelpcdn.com/bphoto/qtWCfLwizAw8Vx3EMLLgLg/o.jpg",
    "alias": "vegetarian",
    "title": "Vegetarian"
  },
  {
    "id": "617w8MQE3z1szmLvs0WfCw",
    "name": "Bar Bomb\u00f3n",
    "review_count": 832,
    "rating": 4.0,
    "price_range": "$$",
    "location": {
      "city": "Philadelphia",
      "state": "PA"
    },
    "image_url": "https://s3-media3.fl.yelpcdn.com/bphoto/qtWCfLwizAw8Vx3EMLLgLg/o.jpg",
    "alias": "vegetarian",
    "title": "Vegetarian"
  },
  {
    "id": "05ev984NYfimRN0UiFrxaA",
    "name": "Osteria",
    "review_count": 997,
    "rating": 4.0,
    "price_range": "$$$",
    "location": {
      "city": "Philadelphia",
      "state": "PA"
    },
    "image_url": "https://s3-media2.fl.yelpcdn.com/bphoto/Ic-pAN8ozmJKiFwsvRFCog/o.jpg",
    "alias": "italian",
    "title": "Italian"
  },
  {
    "id": "05ev984NYfimRN0UiFrxaA",
    "name": "Osteria",
    "review_count": 997,
    "rating": 4.0,
    "price_range": "$$$",
    "location": {
      "city": "Philadelphia",
      "state": "PA"
    },
    "image_url": "https://s3-media2.fl.yelpcdn.com/bphoto/Ic-pAN8ozmJKiFwsvRFCog/o.jpg",
    "alias": "italian",
    "title": "Italian"
  },
  {
    "id": "erz6oUEJdx787WyOlxMARw",
    "name": "Dante & Luigi's",
    "review_count": 494,
    "rating": 4.5,
    "price_range": "$$",
    "location": {
      "city": "Philadelphia",
      "state": "PA"
    },
    "image_url": "https://s3-media1.fl.yelpcdn.com/bphoto/4bKUyHkhuC3U5CrNXdN1DA/o.jpg",
    "alias": "italian",
    "title": "Italian"
  },
  {
    "id": "erz6oUEJdx787WyOlxMARw",
    "name": "Dante & Luigi's",
    "review_count": 494,
    "rating": 4.5,
    "price_range": "$$",
    "location": {
      "city": "Philadelphia",
      "state": "PA"
    },
    "image_url": "https://s3-media1.fl.yelpcdn.com/bphoto/4bKUyHkhuC3U5CrNXdN1DA/o.jpg",
    "alias": "italian",
    "title": "Italian"
  },
  {
    "id": "jxEMFqwDJXjCxmcm5t5jVQ",
    "name": "Cleavers",
    "review_count": 1612,
    "rating": 4.0,
    "price_range": "$$",
    "location": {
      "city": "Philadelphia",
      "state": "PA"
    },
    "image_url": "https://s3-media2.fl.yelpcdn.com/bphoto/Lk-zROpKmX21gdA3bbUzRg/o.jpg",
    "alias": "cheesesteaks",
    "title": "Cheesesteaks"
  },
  {
    "id": "jxEMFqwDJXjCxmcm5t5jVQ",
    "name": "Cleavers",
    "review_count": 1612,
    "rating": 4.0,
    "price_range": "$$",
    "location": {
      "city": "Philadelphia",
      "state": "PA"
    },
    "image_url": "https://s3-media2.fl.yelpcdn.com/bphoto/Lk-zROpKmX21gdA3bbUzRg/o.jpg",
    "alias": "cheesesteaks",
    "title": "Cheesesteaks"
  },
  {
    "id": "AGlh4ZDv6jnoiYfz7At9mw",
    "name": "Dim Sum Garden",
    "review_count": 2956,
    "rating": 4.0,
    "price_range": "$$",
    "location": {
      "city": "Philadelphia",
      "state": "PA"
    },
    "image_url": "https://s3-media2.fl.yelpcdn.com/bphoto/ybSDyHe9hvh2fOCP3NKpwA/o.jpg",
    "alias": "dimsum",
    "title": "Dim Sum"
  },
  {
    "id": "AGlh4ZDv6jnoiYfz7At9mw",
    "name": "Dim Sum Garden",
    "review_count": 2956,
    "rating": 4.0,
    "price_range": "$$",
    "location": {
      "city": "Philadelphia",
      "state": "PA"
    },
    "image_url": "https://s3-media2.fl.yelpcdn.com/bphoto/ybSDyHe9hvh2fOCP3NKpwA/o.jpg",
    "alias": "dimsum",
    "title": "Dim Sum"
  },
  {
    "id": "TozkPEh-xhts3qfVeRFeRg",
    "name": "Bad Brother",
    "review_count": 134,
    "rating": 5.0,
    "price_range": null,
    "location": {
      "city": "Philadelphia",
      "state": "PA"
    },
    "image_url": "https://s3-media2.fl.yelpcdn.com/bphoto/oNWGVDzNsl8gH16yjscraA/o.jpg",
    "alias": "newamerican",
    "title": "New American"
  },
  {
    "id": "TozkPEh-xhts3qfVeRFeRg",
    "name": "Bad Brother",
    "review_count": 134,
    "rating": 5.0,
    "price_range": null,
    "location": {
      "city": "Philadelphia",
      "state": "PA"
    },
    "image_url": "https://s3-media2.fl.yelpcdn.com/bphoto/oNWGVDzNsl8gH16yjscraA/o.jpg",
    "alias": "newamerican",
    "title": "New American"
  },
  {
    "id": "asbEI02GRGFPSPM97hrIaA",
    "name": "Nemi Restaurant",
    "review_count": 151,
    "rating": 4.5,
    "price_range": "$$",
    "location": {
      "city": "Phila",
      "state": "PA"
    },
    "image_url": "https://s3-media1.fl.yelpcdn.com/bphoto/5YF91dfeys9g5b1Wnbhp4A/o.jpg",
    "alias": "mexican",
    "title": "Mexican"
  },
  {
    "id": "asbEI02GRGFPSPM97hrIaA",
    "name": "Nemi Restaurant",
    "review_count": 151,
    "rating": 4.5,
    "price_range": "$$",
    "location": {
      "city": "Phila",
      "state": "PA"
    },
    "image_url": "https://s3-media1.fl.yelpcdn.com/bphoto/5YF91dfeys9g5b1Wnbhp4A/o.jpg",
    "alias": "mexican",
    "title": "Mexican"
  },
  {
    "id": "JrG4NINLspXPNhSXg7Q07Q",
    "name": "Front Street Cafe",
    "review_count": 837,
    "rating": 4.0,
    "price_range": "$$",
    "location": {
      "city": "Philadelphia",
      "state": "PA"
    },
    "image_url": "https://s3-media2.fl.yelpcdn.com/bphoto/tSFHaWodxsHorwjRP72HOw/o.jpg",
    "alias": "bars",
    "title": "Bars"
  },
  {
    "id": "JrG4NINLspXPNhSXg7Q07Q",
    "name": "Front Street Cafe",
    "review_count": 837,
    "rating": 4.0,
    "price_range": "$$",
    "location": {
      "city": "Philadelphia",
      "state": "PA"
    },
    "image_url": "https://s3-media2.fl.yelpcdn.com/bphoto/tSFHaWodxsHorwjRP72HOw/o.jpg",
    "alias": "bars",
    "title": "Bars"
  },
  {
    "id": "fEqiXG_B-fn__w0aeF3nBQ",
    "name": "Laurel",
    "review_count": 366,
    "rating": 4.5,
    "price_range": "$$$$",
    "location": {
      "city": "Philadelphia",
      "state": "PA"
    },
    "image_url": "https://s3-media4.fl.yelpcdn.com/bphoto/rlFsoFBQSgEtE2gPHlFoSA/o.jpg",
    "alias": "french",
    "title": "French"
  },
  {
    "id": "fEqiXG_B-fn__w0aeF3nBQ",
    "name": "Laurel",
    "review_count": 366,
    "rating": 4.5,
    "price_range": "$$$$",
    "location": {
      "city": "Philadelphia",
      "state": "PA"
    },
    "image_url": "https://s3-media4.fl.yelpcdn.com/bphoto/rlFsoFBQSgEtE2gPHlFoSA/o.jpg",
    "alias": "french",
    "title": "French"
  },
  {
    "id": "arKiXax3ScSM_z3O-0CIyw",
    "name": "Spasso Italian Grill",
    "review_count": 653,
    "rating": 4.0,
    "price_range": "$$",
    "location": {
      "city": "Philadelphia",
      "state": "PA"
    },
    "image_url": "https://s3-media1.fl.yelpcdn.com/bphoto/0hDAi840F6gv2RVWRwuXuQ/o.jpg",
    "alias": "italian",
    "title": "Italian"
  },
  {
    "id": "arKiXax3ScSM_z3O-0CIyw",
    "name": "Spasso Italian Grill",
    "review_count": 653,
    "rating": 4.0,
    "price_range": "$$",
    "location": {
      "city": "Philadelphia",
      "state": "PA"
    },
    "image_url": "https://s3-media1.fl.yelpcdn.com/bphoto/0hDAi840F6gv2RVWRwuXuQ/o.jpg",
    "alias": "italian",
    "title": "Italian"
  },
  {
    "id": "W06QBC9vkxA5CVBNVrOMRA",
    "name": "North Third",
    "review_count": 708,
    "rating": 4.0,
    "price_range": "$$",
    "location": {
      "city": "Philadelphia",
      "state": "PA"
    },
    "image_url": "https://s3-media4.fl.yelpcdn.com/bphoto/jfPllUh0szB1-gTbXDw8Wg/o.jpg",
    "alias": "bars",
    "title": "Bars"
  },
  {
    "id": "W06QBC9vkxA5CVBNVrOMRA",
    "name": "North Third",
    "review_count": 708,
    "rating": 4.0,
    "price_range": "$$",
    "location": {
      "city": "Philadelphia",
      "state": "PA"
    },
    "image_url": "https://s3-media4.fl.yelpcdn.com/bphoto/jfPllUh0szB1-gTbXDw8Wg/o.jpg",
    "alias": "bars",
    "title": "Bars"
  },
  {
    "id": "4cTm_8r-abJriSMC2Pw98A",
    "name": "Prunella",
    "review_count": 187,
    "rating": 4.5,
    "price_range": "$$",
    "location": {
      "city": "Philadelphia",
      "state": "PA"
    },
    "image_url": "https://s3-media2.fl.yelpcdn.com/bphoto/zhLmXjHMedHiWDR6VT0Ljg/o.jpg",
    "alias": "italian",
    "title": "Italian"
  },
  {
    "id": "4cTm_8r-abJriSMC2Pw98A",
    "name": "Prunella",
    "review_count": 187,
    "rating": 4.5,
    "price_range": "$$",
    "location": {
      "city": "Philadelphia",
      "state": "PA"
    },
    "image_url": "https://s3-media2.fl.yelpcdn.com/bphoto/zhLmXjHMedHiWDR6VT0Ljg/o.jpg",
    "alias": "italian",
    "title": "Italian"
  },
  {
    "id": "KrKQChZ1hwHHVaUK9Zc-Ag",
    "name": "Iron Hill Brewery & Restaurant",
    "review_count": 487,
    "rating": 4.0,
    "price_range": "$$",
    "location": {
      "city": "Philadelphia",
      "state": "PA"
    },
    "image_url": "https://s3-media4.fl.yelpcdn.com/bphoto/W2hbQmqszOFnEh_reIaDkg/o.jpg",
    "alias": "tradamerican",
    "title": "American"
  },
  {
    "id": "KrKQChZ1hwHHVaUK9Zc-Ag",
    "name": "Iron Hill Brewery & Restaurant",
    "review_count": 487,
    "rating": 4.0,
    "price_range": "$$",
    "location": {
      "city": "Philadelphia",
      "state": "PA"
    },
    "image_url": "https://s3-media4.fl.yelpcdn.com/bphoto/W2hbQmqszOFnEh_reIaDkg/o.jpg",
    "alias": "tradamerican",
    "title": "American"
  },
  {
    "id": "kbXpjBSweedxQ1WrlJ5i7Q",
    "name": "Dan Dan",
    "review_count": 1001,
    "rating": 4.0,
    "price_range": "$$",
    "location": {
      "city": "Philadelphia",
      "state": "PA"
    },
    "image_url": "https://s3-media3.fl.yelpcdn.com/bphoto/_ON8w1R8UixchOpY_4SeXA/o.jpg",
    "alias": "szechuan",
    "title": "Szechuan"
  },
  {
    "id": "kbXpjBSweedxQ1WrlJ5i7Q",
    "name": "Dan Dan",
    "review_count": 1001,
    "rating": 4.0,
    "price_range": "$$",
    "location": {
      "city": "Philadelphia",
      "state": "PA"
    },
    "image_url": "https://s3-media3.fl.yelpcdn.com/bphoto/_ON8w1R8UixchOpY_4SeXA/o.jpg",
    "alias": "szechuan",
    "title": "Szechuan"
  },
  {
    "id": "rOspf7E1Y8YAbVXTZyl-tQ",
    "name": "Cedar Point Bar and Kitchen",
    "review_count": 358,
    "rating": 4.0,
    "price_range": "$$",
    "location": {
      "city": "Philadelphia",
      "state": "PA"
    },
    "image_url": "https://s3-media4.fl.yelpcdn.com/bphoto/HAj-AA89ImoVjD6khyAkmQ/o.jpg",
    "alias": "tradamerican",
    "title": "American"
  },
  {
    "id": "rOspf7E1Y8YAbVXTZyl-tQ",
    "name": "Cedar Point Bar and Kitchen",
    "review_count": 358,
    "rating": 4.0,
    "price_range": "$$",
    "location": {
      "city": "Philadelphia",
      "state": "PA"
    },
    "image_url": "https://s3-media4.fl.yelpcdn.com/bphoto/HAj-AA89ImoVjD6khyAkmQ/o.jpg",
    "alias": "tradamerican",
    "title": "American"
  },
  {
    "id": "RQAF6a0akMiot5lZZnMNNw",
    "name": "Dalessandro\u2019s Steaks & Hoagies",
    "review_count": 3268,
    "rating": 4.0,
    "price_range": "$$",
    "location": {
      "city": "Philadelphia",
      "state": "PA"
    },
    "image_url": "https://s3-media3.fl.yelpcdn.com/bphoto/jRs94o7uPHOg5cY6I3CFqg/o.jpg",
    "alias": "sandwiches",
    "title": "Sandwiches"
  },
  {
    "id": "RQAF6a0akMiot5lZZnMNNw",
    "name": "Dalessandro\u2019s Steaks & Hoagies",
    "review_count": 3268,
    "rating": 4.0,
    "price_range": "$$",
    "location": {
      "city": "Philadelphia",
      "state": "PA"
    },
    "image_url": "https://s3-media3.fl.yelpcdn.com/bphoto/jRs94o7uPHOg5cY6I3CFqg/o.jpg",
    "alias": "sandwiches",
    "title": "Sandwiches"
  },
  {
    "id": "7pAgxBMUjrVPH7xh3fn-gw",
    "name": "Oh Brother Philly",
    "review_count": 832,
    "rating": 4.5,
    "price_range": "$$",
    "location": {
      "city": "Philadelphia",
      "state": "PA"
    },
    "image_url": "https://s3-media3.fl.yelpcdn.com/bphoto/wI_SQAdxZjqAjNQZbpGomw/o.jpg",
    "alias": "cheesesteaks",
    "title": "Cheesesteaks"
  },
  {
    "id": "7pAgxBMUjrVPH7xh3fn-gw",
    "name": "Oh Brother Philly",
    "review_count": 832,
    "rating": 4.5,
    "price_range": "$$",
    "location": {
      "city": "Philadelphia",
      "state": "PA"
    },
    "image_url": "https://s3-media3.fl.yelpcdn.com/bphoto/wI_SQAdxZjqAjNQZbpGomw/o.jpg",
    "alias": "cheesesteaks",
    "title": "Cheesesteaks"
  },
  {
    "id": "4wq9bzoCe3Mh0cPbYH1eDg",
    "name": "Max's Steaks",
    "review_count": 829,
    "rating": 4.0,
    "price_range": "$$",
    "location": {
      "city": "Philadelphia",
      "state": "PA"
    },
    "image_url": "https://s3-media2.fl.yelpcdn.com/bphoto/OhGLUPggAELOuXNUpHIJDA/o.jpg",
    "alias": "sandwiches",
    "title": "Sandwiches"
  },
  {
    "id": "4wq9bzoCe3Mh0cPbYH1eDg",
    "name": "Max's Steaks",
    "review_count": 829,
    "rating": 4.0,
    "price_range": "$$",
    "location": {
      "city": "Philadelphia",
      "state": "PA"
    },
    "image_url": "https://s3-media2.fl.yelpcdn.com/bphoto/OhGLUPggAELOuXNUpHIJDA/o.jpg",
    "alias": "sandwiches",
    "title": "Sandwiches"
  },
  {
    "id": "cFSyJluKa2SHtgMMvlx6SQ",
    "name": "Angelo's Pizzeria",
    "review_count": 730,
    "rating": 4.5,
    "price_range": "$$",
    "location": {
      "city": "Philadelphia",
      "state": "PA"
    },
    "image_url": "https://s3-media4.fl.yelpcdn.com/bphoto/nCuxi7rqEyukAg1tLVXE-g/o.jpg",
    "alias": "pizza",
    "title": "Pizza"
  },
  {
    "id": "cFSyJluKa2SHtgMMvlx6SQ",
    "name": "Angelo's Pizzeria",
    "review_count": 730,
    "rating": 4.5,
    "price_range": "$$",
    "location": {
      "city": "Philadelphia",
      "state": "PA"
    },
    "image_url": "https://s3-media4.fl.yelpcdn.com/bphoto/nCuxi7rqEyukAg1tLVXE-g/o.jpg",
    "alias": "pizza",
    "title": "Pizza"
  },
  {
    "id": "VwZ5NDbIu3elGQI6MzcXBA",
    "name": "Blue Corn",
    "review_count": 409,
    "rating": 4.5,
    "price_range": "$$",
    "location": {
      "city": "Philadelphia",
      "state": "PA"
    },
    "image_url": "https://s3-media2.fl.yelpcdn.com/bphoto/j9RF6R-F-qSexqjC1TwdRg/o.jpg",
    "alias": "cocktailbars",
    "title": "Cocktail Bars"
  },
  {
    "id": "VwZ5NDbIu3elGQI6MzcXBA",
    "name": "Blue Corn",
    "review_count": 409,
    "rating": 4.5,
    "price_range": "$$",
    "location": {
      "city": "Philadelphia",
      "state": "PA"
    },
    "image_url": "https://s3-media2.fl.yelpcdn.com/bphoto/j9RF6R-F-qSexqjC1TwdRg/o.jpg",
    "alias": "cocktailbars",
    "title": "Cocktail Bars"
  },
  {
    "id": "trwHwsXOVV-ZmF-MtP98BA",
    "name": "High Street Philadelphia",
    "review_count": 856,
    "rating": 4.0,
    "price_range": "$$",
    "location": {
      "city": "Philadelphia",
      "state": "PA"
    },
    "image_url": "https://s3-media1.fl.yelpcdn.com/bphoto/UmY8hKkhhvC-WjMUbhT9DQ/o.jpg",
    "alias": "newamerican",
    "title": "New American"
  },
  {
    "id": "trwHwsXOVV-ZmF-MtP98BA",
    "name": "High Street Philadelphia",
    "review_count": 856,
    "rating": 4.0,
    "price_range": "$$",
    "location": {
      "city": "Philadelphia",
      "state": "PA"
    },
    "image_url": "https://s3-media1.fl.yelpcdn.com/bphoto/UmY8hKkhhvC-WjMUbhT9DQ/o.jpg",
    "alias": "newamerican",
    "title": "New American"
  },
  {
    "id": "G9LZoNlCfRH941q87_JLIg",
    "name": "Mission Taqueria",
    "review_count": 736,
    "rating": 4.0,
    "price_range": "$$",
    "location": {
      "city": "Philadelphia",
      "state": "PA"
    },
    "image_url": "https://s3-media4.fl.yelpcdn.com/bphoto/4MnZTaZsc3T9CGgtzkzXzQ/o.jpg",
    "alias": "mexican",
    "title": "Mexican"
  },
  {
    "id": "G9LZoNlCfRH941q87_JLIg",
    "name": "Mission Taqueria",
    "review_count": 736,
    "rating": 4.0,
    "price_range": "$$",
    "location": {
      "city": "Philadelphia",
      "state": "PA"
    },
    "image_url": "https://s3-media4.fl.yelpcdn.com/bphoto/4MnZTaZsc3T9CGgtzkzXzQ/o.jpg",
    "alias": "mexican",
    "title": "Mexican"
  },
  {
    "id": "3xEfhRaWMSTN8XcuMgBjQA",
    "name": "Fiorino",
    "review_count": 423,
    "rating": 4.5,
    "price_range": "$$",
    "location": {
      "city": "Philadelphia",
      "state": "PA"
    },
    "image_url": "https://s3-media3.fl.yelpcdn.com/bphoto/01cDauiPZmp6QNP6WbKZtw/o.jpg",
    "alias": "italian",
    "title": "Italian"
  },
  {
    "id": "3xEfhRaWMSTN8XcuMgBjQA",
    "name": "Fiorino",
    "review_count": 423,
    "rating": 4.5,
    "price_range": "$$",
    "location": {
      "city": "Philadelphia",
      "state": "PA"
    },
    "image_url": "https://s3-media3.fl.yelpcdn.com/bphoto/01cDauiPZmp6QNP6WbKZtw/o.jpg",
    "alias": "italian",
    "title": "Italian"
  },
  {
    "id": "HHBbetQ-XRQYJprT5Qp9jw",
    "name": "Gaul & Co. Malthouse",
    "review_count": 156,
    "rating": 4.5,
    "price_range": "$$",
    "location": {
      "city": "Philadelphia",
      "state": "PA"
    },
    "image_url": "https://s3-media1.fl.yelpcdn.com/bphoto/q1cFXaz-GuTlYGj7TobRGg/o.jpg",
    "alias": "newamerican",
    "title": "New American"
  },
  {
    "id": "HHBbetQ-XRQYJprT5Qp9jw",
    "name": "Gaul & Co. Malthouse",
    "review_count": 156,
    "rating": 4.5,
    "price_range": "$$",
    "location": {
      "city": "Philadelphia",
      "state": "PA"
    },
    "image_url": "https://s3-media1.fl.yelpcdn.com/bphoto/q1cFXaz-GuTlYGj7TobRGg/o.jpg",
    "alias": "newamerican",
    "title": "New American"
  },
  {
    "id": "vVfy055EfLMdd0yJYHxiMQ",
    "name": "A La Mousse",
    "review_count": 802,
    "rating": 4.5,
    "price_range": "$$",
    "location": {
      "city": "Philadelphia",
      "state": "PA"
    },
    "image_url": "https://s3-media1.fl.yelpcdn.com/bphoto/rQ6xGAjVMwU439agGcErIg/o.jpg",
    "alias": "desserts",
    "title": "Desserts"
  },
  {
    "id": "vVfy055EfLMdd0yJYHxiMQ",
    "name": "A La Mousse",
    "review_count": 802,
    "rating": 4.5,
    "price_range": "$$",
    "location": {
      "city": "Philadelphia",
      "state": "PA"
    },
    "image_url": "https://s3-media1.fl.yelpcdn.com/bphoto/rQ6xGAjVMwU439agGcErIg/o.jpg",
    "alias": "desserts",
    "title": "Desserts"
  },
  {
    "id": "EhotxJEJxpMgCJ0F82Buvg",
    "name": "The Olde Bar",
    "review_count": 411,
    "rating": 4.0,
    "price_range": "$$$",
    "location": {
      "city": "Philadelphia",
      "state": "PA"
    },
    "image_url": "https://s3-media1.fl.yelpcdn.com/bphoto/wpdbq8lxJMdMiJzyaqfd8g/o.jpg",
    "alias": "cocktailbars",
    "title": "Cocktail Bars"
  },
  {
    "id": "EhotxJEJxpMgCJ0F82Buvg",
    "name": "The Olde Bar",
    "review_count": 411,
    "rating": 4.0,
    "price_range": "$$$",
    "location": {
      "city": "Philadelphia",
      "state": "PA"
    },
    "image_url": "https://s3-media1.fl.yelpcdn.com/bphoto/wpdbq8lxJMdMiJzyaqfd8g/o.jpg",
    "alias": "cocktailbars",
    "title": "Cocktail Bars"
  },
  {
    "id": "VSDdUwXktnvL_O0meKv7MQ",
    "name": "Alice Pizza",
    "review_count": 321,
    "rating": 4.5,
    "price_range": "$$",
    "location": {
      "city": "Philadelphia",
      "state": "PA"
    },
    "image_url": "https://s3-media1.fl.yelpcdn.com/bphoto/-PalNDmCnBNO3lo-kAm-1w/o.jpg",
    "alias": "pizza",
    "title": "Pizza"
  },
  {
    "id": "VSDdUwXktnvL_O0meKv7MQ",
    "name": "Alice Pizza",
    "review_count": 321,
    "rating": 4.5,
    "price_range": "$$",
    "location": {
      "city": "Philadelphia",
      "state": "PA"
    },
    "image_url": "https://s3-media1.fl.yelpcdn.com/bphoto/-PalNDmCnBNO3lo-kAm-1w/o.jpg",
    "alias": "pizza",
    "title": "Pizza"
  },
  {
    "id": "ozOneB4jXOD6hv5WBGj4KQ",
    "name": "Ristorante Pesto",
    "review_count": 691,
    "rating": 4.5,
    "price_range": "$$",
    "location": {
      "city": "Philadelphia",
      "state": "PA"
    },
    "image_url": "https://s3-media3.fl.yelpcdn.com/bphoto/DKuKrK1JNP6DFKPM7ffLbA/o.jpg",
    "alias": "italian",
    "title": "Italian"
  },
  {
    "id": "ozOneB4jXOD6hv5WBGj4KQ",
    "name": "Ristorante Pesto",
    "review_count": 691,
    "rating": 4.5,
    "price_range": "$$",
    "location": {
      "city": "Philadelphia",
      "state": "PA"
    },
    "image_url": "https://s3-media3.fl.yelpcdn.com/bphoto/DKuKrK1JNP6DFKPM7ffLbA/o.jpg",
    "alias": "italian",
    "title": "Italian"
  },
  {
    "id": "HbnWgfnaX-kUobTx2QTWpQ",
    "name": "Kalaya",
    "review_count": 254,
    "rating": 4.0,
    "price_range": null,
    "location": {
      "city": "Philadelphia",
      "state": "PA"
    },
    "image_url": "https://s3-media4.fl.yelpcdn.com/bphoto/GXfcrfTduPzBWwZ38GCmBQ/o.jpg",
    "alias": "thai",
    "title": "Thai"
  },
  {
    "id": "HbnWgfnaX-kUobTx2QTWpQ",
    "name": "Kalaya",
    "review_count": 254,
    "rating": 4.0,
    "price_range": null,
    "location": {
      "city": "Philadelphia",
      "state": "PA"
    },
    "image_url": "https://s3-media4.fl.yelpcdn.com/bphoto/GXfcrfTduPzBWwZ38GCmBQ/o.jpg",
    "alias": "thai",
    "title": "Thai"
  },
  {
    "id": "TjwWB-ET-qmO2-8bfIHMig",
    "name": "Cheu Fishtown",
    "review_count": 320,
    "rating": 4.0,
    "price_range": "$$",
    "location": {
      "city": "Philadelphia",
      "state": "PA"
    },
    "image_url": "https://s3-media3.fl.yelpcdn.com/bphoto/i_tXvE1JamtH8kef_oPq-g/o.jpg",
    "alias": "noodles",
    "title": "Noodles"
  },
  {
    "id": "TjwWB-ET-qmO2-8bfIHMig",
    "name": "Cheu Fishtown",
    "review_count": 320,
    "rating": 4.0,
    "price_range": "$$",
    "location": {
      "city": "Philadelphia",
      "state": "PA"
    },
    "image_url": "https://s3-media3.fl.yelpcdn.com/bphoto/i_tXvE1JamtH8kef_oPq-g/o.jpg",
    "alias": "noodles",
    "title": "Noodles"
  },
  {
    "id": "68ThEdiK0eWCEgGEmV9Tng",
    "name": "Southgate",
    "review_count": 371,
    "rating": 4.0,
    "price_range": "$$",
    "location": {
      "city": "Philadelphia",
      "state": "PA"
    },
    "image_url": "https://s3-media2.fl.yelpcdn.com/bphoto/viividuyNUty-AWBKx4RAA/o.jpg",
    "alias": "korean",
    "title": "Korean"
  },
  {
    "id": "68ThEdiK0eWCEgGEmV9Tng",
    "name": "Southgate",
    "review_count": 371,
    "rating": 4.0,
    "price_range": "$$",
    "location": {
      "city": "Philadelphia",
      "state": "PA"
    },
    "image_url": "https://s3-media2.fl.yelpcdn.com/bphoto/viividuyNUty-AWBKx4RAA/o.jpg",
    "alias": "korean",
    "title": "Korean"
  },
  {
    "id": "M6qDX8HZS7gOJ_pBOAih1g",
    "name": "Royal Boucherie",
    "review_count": 277,
    "rating": 4.0,
    "price_range": "$$$",
    "location": {
      "city": "Philadelphia",
      "state": "PA"
    },
    "image_url": "https://s3-media2.fl.yelpcdn.com/bphoto/SFbCg9IUAXQk1VJlT--i4g/o.jpg",
    "alias": "brasseries",
    "title": "Brasseries"
  },
  {
    "id": "M6qDX8HZS7gOJ_pBOAih1g",
    "name": "Royal Boucherie",
    "review_count": 277,
    "rating": 4.0,
    "price_range": "$$$",
    "location": {
      "city": "Philadelphia",
      "state": "PA"
    },
    "image_url": "https://s3-media2.fl.yelpcdn.com/bphoto/SFbCg9IUAXQk1VJlT--i4g/o.jpg",
    "alias": "brasseries",
    "title": "Brasseries"
  },
  {
    "id": "_OgwyI_0mGs620_ZfKgzbg",
    "name": "Tierra Colombiana Restaurant",
    "review_count": 451,
    "rating": 4.0,
    "price_range": "$$",
    "location": {
      "city": "Philadelphia",
      "state": "PA"
    },
    "image_url": "https://s3-media1.fl.yelpcdn.com/bphoto/q6epBk2dEULZr2-UE64WKg/o.jpg",
    "alias": "latin",
    "title": "Latin American"
  },
  {
    "id": "_OgwyI_0mGs620_ZfKgzbg",
    "name": "Tierra Colombiana Restaurant",
    "review_count": 451,
    "rating": 4.0,
    "price_range": "$$",
    "location": {
      "city": "Philadelphia",
      "state": "PA"
    },
    "image_url": "https://s3-media1.fl.yelpcdn.com/bphoto/q6epBk2dEULZr2-UE64WKg/o.jpg",
    "alias": "latin",
    "title": "Latin American"
  }
]