[
  {
    "id": "i_FWONQD1ZBqrNE2b-M5Ug",
    "name": "Talula's Garden",
    "review_count": 2239,
    "rating": 4.5,
    "price_range": "$$$",
    "location": {
      "city": "Philadelphia",
      "state": "PA"
    },
    "image_url": "https://s3-media3.fl.yelpcdn.com/bphoto/dMuRtBOlomx1EKRydogyQg/o.jpg",
    "alias": "newamerican",
    "title": "New American"
  },
  {
    "id": "6ajnOk0GcY9xbb5Ocaw8Gw",
    "name": "Barbuzzo",
    "review_count": 3246,
    "rating": 4.5,
    "price_range": "$$",
    "location": {
      "city": "Philadelphia",
      "state": "PA"
    },
    "image_url": "https://s3-media2.fl.yelpcdn.com/bphoto/DORymf8MBaKV4aemHUL0Xw/o.jpg",
    "alias": "mediterranean",
    "title": "Mediterranean"
  },
  {
    "id": "ctHjyadbDQAtUFfkcAFEHw",
    "name": "Zahav",
    "review_count": 3409,
    "rating": 4.5,
    "price_range": "$$$$",
    "location": {
      "city": "Philadelphia",
      "state": "PA"
    },
    "image_url": "https://s3-media2.fl.yelpcdn.com/bphoto/it0vY1UBcjXyIDbg54c0vQ/o.jpg",
    "alias": "mideastern",
    "title": "Middle Eastern"
  },
  {
    "id": "-cEFKAznWmI0cledNOIQ7w",
    "name": "Gran Caffe L'Aquila",
    "review_count": 1452,
    "rating": 4.5,
    "price_range": "$$",
    "location": {
      "city": "Philadelphia",
      "state": "PA"
    },
    "image_url": "https://s3-media2.fl.yelpcdn.com/bphoto/qMOQt2WsZJy1-Dq1oCRwAA/o.jpg",
    "alias": "coffee",
    "title": "Coffee & Tea"
  },
  {
    "id": "vUrTGX_7HxqeoQ_6QCVz6g",
    "name": "Suraya",
    "review_count": 1464,
    "rating": 4.5,
    "price_range": "$$$",
    "location": {
      "city": "Philadelphia",
      "state": "PA"
    },
    "image_url": "https://s3-media1.fl.yelpcdn.com/bphoto/H6vumhULeuBQESdnGKxq0w/o.jpg",
    "alias": "lebanese",
    "title": "Lebanese"
  },
  {
    "id": "mtvT7uRey3F395STFRM1Tg",
    "name": "Vernick Food & Drink",
    "review_count": 1096,
    "rating": 4.5,
    "price_range": "$$$$",
    "location": {
      "city": "Philadelphia",
      "state": "PA"
    },
    "image_url": "https://s3-media2.fl.yelpcdn.com/bphoto/G2cqe7Z1QGWH7he-rfto1w/o.jpg",
    "alias": "newamerican",
    "title": "New American"
  },
  {
    "id": "dChRGpit9fM_kZK5pafNyA",
    "name": "The Love",
    "review_count": 977,
    "rating": 4.5,
    "price_range": "$$$",
    "location": {
      "city": "Philadelphia",
      "state": "PA"
    },
    "image_url": "https://s3-media3.fl.yelpcdn.com/bphoto/TtLahAvqLQUtWGZe4RXImg/o.jpg",
    "alias": "newamerican",
    "title": "New American"
  },
  {
    "id": "8pqdJjefYq-a9IBSJJmKwA",
    "name": "The Dandelion",
    "review_count": 2847,
    "rating": 4.0,
    "price_range": "$$",
    "location": {
      "city": "Philadelphia",
      "state": "PA"
    },
    "image_url": "https://s3-media3.fl.yelpcdn.com/bphoto/NQxNOUXGznTVrzn85tdO_g/o.jpg",
    "alias": "gastropubs",
    "title": "Gastropubs"
  },
  {
    "id": "j-qtdD55OLfSqfsWuQTDJg",
    "name": "Parc",
    "review_count": 3220,
    "rating": 4.0,
    "price_range": "$$$",
    "location": {
      "city": "Philadelphia",
      "state": "PA"
    },
    "image_url": "https://s3-media3.fl.yelpcdn.com/bphoto/0vGzdKssl2CEbecvtOGxHw/o.jpg",
    "alias": "french",
    "title": "French"
  },
  {
    "id": "iksVwRfpWymIUUFqw0tXpw",
    "name": "Chubby Cattle",
    "review_count": 1500,
    "rating": 4.5,
    "price_range": "$$",
    "location": {
      "city": "Philadelphia",
      "state": "PA"
    },
    "image_url": "https://s3-media4.fl.yelpcdn.com/bphoto/wT3kQpHDP_xnqyAvOKZtoQ/o.jpg",
    "alias": "chinese",
    "title": "Chinese"
  },
  {
    "id": "lKU_kljhbEQKIPaM1Zbqiw",
    "name": "Little Nonna's",
    "review_count": 1370,
    "rating": 4.0,
    "price_range": "$$",
    "location": {
      "city": "Philadelphia",
      "state": "PA"
    },
    "image_url": "https://s3-media3.fl.yelpcdn.com/bphoto/WhgUEaRI1T9PN3M-ty3pNA/o.jpg",
    "alias": "italian",
    "title": "Italian"
  },
  {
    "id": "S_WoTTevlkauq7b2Un9NOQ",
    "name": "Wilder",
    "review_count": 261,
    "rating": 4.5,
    "price_range": null,
    "location": {
      "city": "Philadelphia",
      "state": "PA"
    },
    "image_url": "https://s3-media4.fl.yelpcdn.com/bphoto/jVA-HuQG_DdoHfeu10MSJw/o.jpg",
    "alias": "pizza",
    "title": "Pizza"
  },
  {
    "id": "kZ1q0K13tFYG_ZJrVvsJHA",
    "name": "Sampan",
    "review_count": 2235,
    "rating": 4.0,
    "price_range": "$$",
    "location": {
      "city": "Philadelphia",
      "state": "PA"
    },
    "image_url": "https://s3-media2.fl.yelpcdn.com/bphoto/fQLSgn5ydXZ26572-2_FyA/o.jpg",
    "alias": "asianfusion",
    "title": "Asian Fusion"
  },
  {
    "id": "KscVqYYG7ziAroZhfNb0Ng",
    "name": "South",
    "review_count": 680,
    "rating": 4.0,
    "price_range": "$$$",
    "location": {
      "city": "Philadelphia",
      "state": "PA"
    },
    "image_url": "https://s3-media1.fl.yelpcdn.com/bphoto/woyShzUjW2MHGjbVNCK7bA/o.jpg",
    "alias": "southern",
    "title": "Southern"
  },
  {
    "id": "CYSPKiVdoPX3erovujnE9Q",
    "name": "Harp & Crown",
    "review_count": 1161,
    "rating": 4.0,
    "price_range": "$$",
    "location": {
      "city": "Philadelphia",
      "state": "PA"
    },
    "image_url": "https://s3-media1.fl.yelpcdn.com/bphoto/OAHq_RvHPWlAVw03iDB_Ow/o.jpg",
    "alias": "newamerican",
    "title": "New American"
  },
  {
    "id": "pXRrRf8fDv6yU3xp1E25hA",
    "name": "Bud & Marilyn's",
    "review_count": 1462,
    "rating": 4.0,
    "price_range": "$$",
    "location": {
      "city": "Philadelphia",
      "state": "PA"
    },
    "image_url": "https://s3-media3.fl.yelpcdn.com/bphoto/6vza04ya0Ar-3fi1mk1Dyw/o.jpg",
    "alias": "tradamerican",
    "title": "American"
  },
  {
    "id": "0oSSjekU-3GR8gselReWnA",
    "name": "Butcher and Singer",
    "review_count": 1461,
    "rating": 4.5,
    "price_range": "$$$$",
    "location": {
      "city": "Philadelphia",
      "state": "PA"
    },
    "image_url": "https://s3-media4.fl.yelpcdn.com/bphoto/54_xSXVyKzhUniv9tYXWvA/o.jpg",
    "alias": "tradamerican",
    "title": "American"
  },
  {
    "id": "u0Bt7uvvj7LAjAdiMtrhug",
    "name": "Laser Wolf",
    "review_count": 406,
    "rating": 4.5,
    "price_range": "$$$$",
    "location": {
      "city": "Philadelphia",
      "state": "PA"
    },
    "image_url": "https://s3-media2.fl.yelpcdn.com/bphoto/bWFAizuYEi9shiNMSZIipA/o.jpg",
    "alias": "mideastern",
    "title": "Middle Eastern"
  },
  {
    "id": "hUmHwBQtGg0iH-PZakQJDw",
    "name": "Wm Mulherin's Sons",
    "review_count": 717,
    "rating": 4.5,
    "price_range": "$$$",
    "location": {
      "city": "Philadelphia",
      "state": "PA"
    },
    "image_url": "https://s3-media2.fl.yelpcdn.com/bphoto/JZ7R_Hy0lK0LrRO36SHSPg/o.jpg",
    "alias": "pizza",
    "title": "Pizza"
  },
  {
    "id": "Ipkx4Sa7ybn8C6LtTqTztw",
    "name": "Double Knot",
    "review_count": 1391,
    "rating": 4.5,
    "price_range": "$$$",
    "location": {
      "city": "Philadelphia",
      "state": "PA"
    },
    "image_url": "https://s3-media1.fl.yelpcdn.com/bphoto/PSWURNw-A4kM6KVpdRHwzg/o.jpg",
    "alias": "sushi",
    "title": "Sushi Bars"
  },
  {
    "id": "6_T2xzR74JqGCTPefAD8Tw",
    "name": "Morimoto",
    "review_count": 2111,
    "rating": 4.5,
    "price_range": "$$$$",
    "location": {
      "city": "Philadelphia",
      "state": "PA"
    },
    "image_url": "https://s3-media3.fl.yelpcdn.com/bphoto/vqJvdgXQ5jsQkPVSwkr8Qg/o.jpg",
    "alias": "japanese",
    "title": "Japanese"
  },
  {
    "id": "S8ZFYEgMejpChID8tzKo9A",
    "name": "Amada",
    "review_count": 2273,
    "rating": 4.0,
    "price_range": "$$",
    "location": {
      "city": "Philadelphia",
      "state": "PA"
    },
    "image_url": "https://s3-media1.fl.yelpcdn.com/bphoto/MEkBU1U5896zU2Gn8vrbcw/o.jpg",
    "alias": "tapas",
    "title": "Tapas Bars"
  },
  {
    "id": "poviu-6n3iaRE4gdQz6OYw",
    "name": "Oyster House",
    "review_count": 1590,
    "rating": 4.0,
    "price_range": "$$$",
    "location": {
      "city": "Philadelphia",
      "state": "PA"
    },
    "image_url": "https://s3-media3.fl.yelpcdn.com/bphoto/mCQfcCOhcOfzlfj6gAEQAA/o.jpg",
    "alias": "seafood",
    "title": "Seafood"
  },
  {
    "id": "9PZxjhTIU7OgPIzuGi89Ew",
    "name": "El Vez",
    "review_count": 3578,
    "rating": 4.0,
    "price_range": "$$",
    "location": {
      "city": "Philadelphia",
      "state": "PA"
    },
    "image_url": "https://s3-media3.fl.yelpcdn.com/bphoto/LU9n7XGaqdRiVwEfeEAcmw/o.jpg",
    "alias": "mexican",
    "title": "Mexican"
  },
  {
    "id": "v45E6gg6MrAziTepkiWByA",
    "name": "Harper's Garden",
    "review_count": 738,
    "rating": 4.0,
    "price_range": "$$",
    "location": {
      "city": "Philadelphia",
      "state": "PA"
    },
    "image_url": "https://s3-media4.fl.yelpcdn.com/bphoto/NqyB3EySRc8lujB95opMVw/o.jpg",
    "alias": "newamerican",
    "title": "New American"
  },
  {
    "id": "2CDI713ATuxHfnB5b-sBdw",
    "name": "Vedge",
    "review_count": 1590,
    "rating": 4.5,
    "price_range": "$$$",
    "location": {
      "city": "Philadelphia",
      "state": "PA"
    },
    "image_url": "https://s3-media3.fl.yelpcdn.com/bphoto/Bbq2NLRtDxawTN8TGEtf2g/o.jpg",
    "alias": "vegan",
    "title": "Vegan"
  },
  {
    "id": "wUnLSg_GKfEIQ5CQQ770_g",
    "name": "Vetri Cucina",
    "review_count": 545,
    "rating": 4.5,
    "price_range": "$$$$",
    "location": {
      "city": "Philadelphia",
      "state": "PA"
    },
    "image_url": "https://s3-media3.fl.yelpcdn.com/bphoto/04hFXpen1jUf-cW8qkpy3g/o.jpg",
    "alias": "italian",
    "title": "Italian"
  },
  {
    "id": "ytynqOUb3hjKeJfRj5Tshw",
    "name": "Reading Terminal Market",
    "review_count": 6727,
    "rating": 4.5,
    "price_range": "$$",
    "location": {
      "city": "Philadelphia",
      "state": "PA"
    },
    "image_url": "https://s3-media1.fl.yelpcdn.com/bphoto/2h_XVqLpMyBgF6x9zDPUUA/o.jpg",
    "alias": "food_court",
    "title": "Food Court"
  },
  {
    "id": "uJZgom8HpK74xz8IojpT0A",
    "name": "Pizzeria Beddia",
    "review_count": 742,
    "rating": 4.0,
    "price_range": "$$",
    "location": {
      "city": "Philadelphia",
      "state": "PA"
    },
    "image_url": "https://s3-media1.fl.yelpcdn.com/bphoto/CltlyNX3EqDr6zLjEhuzPQ/o.jpg",
    "alias": "pizza",
    "title": "Pizza"
  },
  {
    "id": "of-GVqY0G_UDHXT9Xg_ADQ",
    "name": "Charlie Was a Sinner",
    "review_count": 1207,
    "rating": 4.0,
    "price_range": "$$",
    "location": {
      "city": "Philadelphia",
      "state": "PA"
    },
    "image_url": "https://s3-media4.fl.yelpcdn.com/bphoto/okBsScMODgPBZ6_S22LOrQ/o.jpg",
    "alias": "cocktailbars",
    "title": "Cocktail Bars"
  },
  {
    "id": "p-MSh95si_sDdih94gyKuw",
    "name": "Forsythia",
    "review_count": 191,
    "rating": 4.5,
    "price_range": "$$$",
    "location": {
      "city": "Philadelphia",
      "state": "PA"
    },
    "image_url": "https://s3-media1.fl.yelpcdn.com/bphoto/m3opfRtc-7N72fKuaqnA2Q/o.jpg",
    "alias": "modern_european",
    "title": "Modern European"
  },
  {
    "id": "Sv1MEZP-mMfp8SmE0hwYEA",
    "name": "Terakawa Ramen",
    "review_count": 1948,
    "rating": 4.5,
    "price_range": "$$",
    "location": {
      "city": "Philadelphia",
      "state": "PA"
    },
    "image_url": "https://s3-media3.fl.yelpcdn.com/bphoto/2UcBQRwLPKpyGSMqZlNvGA/o.jpg",
    "alias": "ramen",
    "title": "Ramen"
  },
  {
    "id": "xdc0TbKkHMZN3N82oeq2XA",
    "name": "Via Locusta",
    "review_count": 314,
    "rating": 4.5,
    "price_range": "$$$",
    "location": {
      "city": "Philadelphia",
      "state": "PA"
    },
    "image_url": "https://s3-media1.fl.yelpcdn.com/bphoto/ZAxXrlqfwqYnU7PPb68UKA/o.jpg",
    "alias": "italian",
    "title": "Italian"
  },
  {
    "id": "wbDRmtxaKRpBOjutvV6TEA",
    "name": "Barclay Prime",
    "review_count": 894,
    "rating": 4.5,
    "price_range": "$$$$",
    "location": {
      "city": "Philadelphia",
      "state": "PA"
    },
    "image_url": "https://s3-media1.fl.yelpcdn.com/bphoto/KSBuz7rWAQR4wu9-vp37Qg/o.jpg",
    "alias": "steak",
    "title": "Steakhouses"
  },
  {
    "id": "hyFzDuyOWNG2rg5GYJ2wiQ",
    "name": "Alpen Rose",
    "review_count": 254,
    "rating": 4.5,
    "price_range": null,
    "location": {
      "city": "Philadelphia",
      "state": "PA"
    },
    "image_url": "https://s3-media3.fl.yelpcdn.com/bphoto/z7yQXGGzNHxLxxxEcw3kZg/o.jpg",
    "alias": "steak",
    "title": "Steakhouses"
  },
  {
    "id": "K7KHmHzxNwzqiijSJeKe_A",
    "name": "Cafe La Maude",
    "review_count": 1789,
    "rating": 4.5,
    "price_range": "$$",
    "location": {
      "city": "Philadelphia",
      "state": "PA"
    },
    "image_url": "https://s3-media2.fl.yelpcdn.com/bphoto/cPQpTg-zjqdoT7NbUSHybg/o.jpg",
    "alias": "cafes",
    "title": "Cafes"
  },
  {
    "id": "Mwc3n5Psw9wRaQ22vZWDYQ",
    "name": "Bar Hygge",
    "review_count": 487,
    "rating": 4.5,
    "price_range": "$$",
    "location": {
      "city": "Philadelphia",
      "state": "PA"
    },
    "image_url": "https://s3-media1.fl.yelpcdn.com/bphoto/p2HmAUrTmDbexS-bnTAF-Q/o.jpg",
    "alias": "comfortfood",
    "title": "Comfort Food"
  },
  {
    "id": "6CUkqed0rhHtFwQ2i7Otsw",
    "name": "Barcelona Wine Bar Passyunk",
    "review_count": 789,
    "rating": 4.5,
    "price_range": "$$$",
    "location": {
      "city": "Philadelphia",
      "state": "PA"
    },
    "image_url": "https://s3-media3.fl.yelpcdn.com/bphoto/ktTsHOH1ebWfQ97aTyo9vw/o.jpg",
    "alias": "tapasmallplates",
    "title": "Tapas/Small Plates"
  },
  {
    "id": "saVXla5i8TjE51S5uCaf6w",
    "name": "Steak 48",
    "review_count": 290,
    "rating": 4.0,
    "price_range": "$$$$",
    "location": {
      "city": "Philadelphia",
      "state": "PA"
    },
    "image_url": "https://s3-media4.fl.yelpcdn.com/bphoto/Q66TvQneNF7_FQSvg5qfAQ/o.jpg",
    "alias": "steak",
    "title": "Steakhouses"
  },
  {
    "id": "eLbKuFpCtHEjCkoWkDDk7g",
    "name": "Trattoria Carina",
    "review_count": 339,
    "rating": 4.5,
    "price_range": "$$",
    "location": {
      "city": "Philadelphia",
      "state": "PA"
    },
    "image_url": "https://s3-media1.fl.yelpcdn.com/bphoto/t8-D1t_KeGRU0EOrLvaT2g/o.jpg",
    "alias": "italian",
    "title": "Italian"
  },
  {
    "id": "4_-IcMpkF_sBRHomWZHNzA",
    "name": "Bistrot La Minette",
    "review_count": 662,
    "rating": 4.5,
    "price_range": "$$$",
    "location": {
      "city": "Philadelphia",
      "state": "PA"
    },
    "image_url": "https://s3-media4.fl.yelpcdn.com/bphoto/KbmXItkhc0EtQfVc05Mj_g/o.jpg",
    "alias": "french",
    "title": "French"
  },
  {
    "id": "zvvl3c1FO3O3BZdhusficA",
    "name": "LMNO",
    "review_count": 225,
    "rating": 4.0,
    "price_range": null,
    "location": {
      "city": "Philadelphia",
      "state": "PA"
    },
    "image_url": "https://s3-media3.fl.yelpcdn.com/bphoto/i5R9RiZbhTRqN0bwfGzG0A/o.jpg",
    "alias": "mexican",
    "title": "Mexican"
  },
  {
    "id": "ORmx8v2fWefT1Ka54Up0MQ",
    "name": "Middle Child Clubhouse",
    "review_count": 172,
    "rating": 4.5,
    "price_range": "$$",
    "location": {
      "city": "Philadelphia",
      "state": "PA"
    },
    "image_url": "https://s3-media1.fl.yelpcdn.com/bphoto/TgMSVqc2UwQkxdm2Td3Bcw/o.jpg",
    "alias": "newamerican",
    "title": "New American"
  },
  {
    "id": "Wtr51cNrv1pYyIRg_IawYQ",
    "name": "The Victor Cafe",
    "review_count": 527,
    "rating": 4.5,
    "price_range": "$$",
    "location": {
      "city": "Philadelphia",
      "state": "PA"
    },
    "image_url": "https://s3-media3.fl.yelpcdn.com/bphoto/8YUxbVuBdtm3jPBmAJiRZw/o.jpg",
    "alias": "italian",
    "title": "Italian"
  },
  {
    "id": "VwZ5NDbIu3elGQI6MzcXBA",
    "name": "Blue Corn",
    "review_count": 409,
    "rating": 4.5,
    "price_range": "$$",
    "location": {
      "city": "Philadelphia",
      "state": "PA"
    },
    "image_url": "https://s3-media2.fl.yelpcdn.com/bphoto/j9RF6R-F-qSexqjC1TwdRg/o.jpg",
    "alias": "cocktailbars",
    "title": "Cocktail Bars"
  },
  {
    "id": "oGMwCmV1EQZgCdylAbK9ow",
    "name": "Rex at the Royal",
    "review_count": 574,
    "rating": 4.5,
    "price_range": "$$$",
    "location": {
      "city": "Philadelphia",
      "state": "PA"
    },
    "image_url": "https://s3-media1.fl.yelpcdn.com/bphoto/Y-mvpNPh4ZPhLcJg7d_xeA/o.jpg",
    "alias": "southern",
    "title": "Southern"
  },
  {
    "id": "JrG4NINLspXPNhSXg7Q07Q",
    "name": "Front Street Cafe",
    "review_count": 837,
    "rating": 4.0,
    "price_range": "$$",
    "location": {
      "city": "Philadelphia",
      "state": "PA"
    },
    "image_url": "https://s3-media2.fl.yelpcdn.com/bphoto/tSFHaWodxsHorwjRP72HOw/o.jpg",
    "alias": "bars",
    "title": "Bars"
  },
  {
    "id": "nIAbuktMEzVjT4P9pG89rQ",
    "name": "Buddakan",
    "review_count": 1742,
    "rating": 4.0,
    "price_range": "$$$",
    "location": {
      "city": "Philadelphia",
      "state": "PA"
    },
    "image_url": "https://s3-media4.fl.yelpcdn.com/bphoto/BGatPioOagd1EFERARkCow/o.jpg",
    "alias": "asianfusion",
    "title": "Asian Fusion"
  },
  {
    "id": "TozkPEh-xhts3qfVeRFeRg",
    "name": "Bad Brother",
    "review_count": 134,
    "rating": 5.0,
    "price_range": null,
    "location": {
      "city": "Philadelphia",
      "state": "PA"
    },
    "image_url": "https://s3-media2.fl.yelpcdn.com/bphoto/oNWGVDzNsl8gH16yjscraA/o.jpg",
    "alias": "newamerican",
    "title": "New American"
  },
  {
    "id": "Qm8pSLYuVS7eIyOx5YsWBw",
    "name": "Glory Beer Bar & Kitchen",
    "review_count": 263,
    "rating": 4.5,
    "price_range": "$$",
    "location": {
      "city": "Philadelphia",
      "state": "PA"
    },
    "image_url": "https://s3-media3.fl.yelpcdn.com/bphoto/4pajIZ8ucFGw4vfCR6anCw/o.jpg",
    "alias": "beerbar",
    "title": "Beer Bar"
  },
  {
    "id": "jxEMFqwDJXjCxmcm5t5jVQ",
    "name": "Cleavers",
    "review_count": 1612,
    "rating": 4.0,
    "price_range": "$$",
    "location": {
      "city": "Philadelphia",
      "state": "PA"
    },
    "image_url": "https://s3-media2.fl.yelpcdn.com/bphoto/Lk-zROpKmX21gdA3bbUzRg/o.jpg",
    "alias": "cheesesteaks",
    "title": "Cheesesteaks"
  },
  {
    "id": "5AGVyIa1_XVUqXGbQXRmiQ",
    "name": "Heritage",
    "review_count": 331,
    "rating": 4.0,
    "price_range": "$$",
    "location": {
      "city": "Philadelphia",
      "state": "PA"
    },
    "image_url": "https://s3-media2.fl.yelpcdn.com/bphoto/xHklEfGR4OpQJIZzjUrUyA/o.jpg",
    "alias": "newamerican",
    "title": "New American"
  },
  {
    "id": "ntiIq1FNqduOyyowMFGh5A",
    "name": "Nan Zhou Hand Drawn Noodle House",
    "review_count": 2375,
    "rating": 4.0,
    "price_range": "$$",
    "location": {
      "city": "Philadelphia",
      "state": "PA"
    },
    "image_url": "https://s3-media1.fl.yelpcdn.com/bphoto/qnyDK-aROHA-vRhsO-NSVA/o.jpg",
    "alias": "chinese",
    "title": "Chinese"
  },
  {
    "id": "RQAF6a0akMiot5lZZnMNNw",
    "name": "Dalessandro\u2019s Steaks & Hoagies",
    "review_count": 3269,
    "rating": 4.0,
    "price_range": "$$",
    "location": {
      "city": "Philadelphia",
      "state": "PA"
    },
    "image_url": "https://s3-media3.fl.yelpcdn.com/bphoto/jRs94o7uPHOg5cY6I3CFqg/o.jpg",
    "alias": "sandwiches",
    "title": "Sandwiches"
  },
  {
    "id": "sb8-TzsXOV7IsErbpHZo3g",
    "name": "Positano Coast by Aldo Lamberti",
    "review_count": 821,
    "rating": 4.0,
    "price_range": "$$",
    "location": {
      "city": "Philadelphia",
      "state": "PA"
    },
    "image_url": "https://s3-media3.fl.yelpcdn.com/bphoto/gN31Y8XF0wYYJzHnSJVpgQ/o.jpg",
    "alias": "italian",
    "title": "Italian"
  },
  {
    "id": "AGlh4ZDv6jnoiYfz7At9mw",
    "name": "Dim Sum Garden",
    "review_count": 2956,
    "rating": 4.0,
    "price_range": "$$",
    "location": {
      "city": "Philadelphia",
      "state": "PA"
    },
    "image_url": "https://s3-media2.fl.yelpcdn.com/bphoto/ybSDyHe9hvh2fOCP3NKpwA/o.jpg",
    "alias": "dimsum",
    "title": "Dim Sum"
  },
  {
    "id": "L0zMk5SXnqR0JLEe0XY20g",
    "name": "Sassafras Bar",
    "review_count": 405,
    "rating": 4.5,
    "price_range": "$$",
    "location": {
      "city": "Philadelphia",
      "state": "PA"
    },
    "image_url": "https://s3-media2.fl.yelpcdn.com/bphoto/yuH57sESNhxh9UevWvDyUw/o.jpg",
    "alias": "bars",
    "title": "Bars"
  },
  {
    "id": "asbEI02GRGFPSPM97hrIaA",
    "name": "Nemi Restaurant",
    "review_count": 151,
    "rating": 4.5,
    "price_range": "$$",
    "location": {
      "city": "Phila",
      "state": "PA"
    },
    "image_url": "https://s3-media1.fl.yelpcdn.com/bphoto/5YF91dfeys9g5b1Wnbhp4A/o.jpg",
    "alias": "mexican",
    "title": "Mexican"
  },
  {
    "id": "kbXpjBSweedxQ1WrlJ5i7Q",
    "name": "Dan Dan",
    "review_count": 1001,
    "rating": 4.0,
    "price_range": "$$",
    "location": {
      "city": "Philadelphia",
      "state": "PA"
    },
    "image_url": "https://s3-media3.fl.yelpcdn.com/bphoto/_ON8w1R8UixchOpY_4SeXA/o.jpg",
    "alias": "szechuan",
    "title": "Szechuan"
  },
  {
    "id": "h7TO_IsmLCYmKKDVOOIeFw",
    "name": "Fat Salmon",
    "review_count": 1189,
    "rating": 4.5,
    "price_range": "$$",
    "location": {
      "city": "Philadelphia",
      "state": "PA"
    },
    "image_url": "https://s3-media1.fl.yelpcdn.com/bphoto/JvXPWBgEmejM59npMks9FA/o.jpg",
    "alias": "japanese",
    "title": "Japanese"
  },
  {
    "id": "l4YoHcvnsK7ICDrTqL7EEg",
    "name": "Vernick Fish",
    "review_count": 195,
    "rating": 4.5,
    "price_range": "$$$",
    "location": {
      "city": "Philadelphia",
      "state": "PA"
    },
    "image_url": "https://s3-media1.fl.yelpcdn.com/bphoto/OcXfm2FVEu9ZGyKd9E3S6Q/o.jpg",
    "alias": "seafood",
    "title": "Seafood"
  },
  {
    "id": "0mijbNf-7wiKJ9xto1pAyg",
    "name": "Spice Finch",
    "review_count": 439,
    "rating": 4.5,
    "price_range": "$$",
    "location": {
      "city": "Philadelphia",
      "state": "PA"
    },
    "image_url": "https://s3-media4.fl.yelpcdn.com/bphoto/bWiJ-G328TS5Nr1ZlpRYAg/o.jpg",
    "alias": "mediterranean",
    "title": "Mediterranean"
  },
  {
    "id": "4cTm_8r-abJriSMC2Pw98A",
    "name": "Prunella",
    "review_count": 187,
    "rating": 4.5,
    "price_range": "$$",
    "location": {
      "city": "Philadelphia",
      "state": "PA"
    },
    "image_url": "https://s3-media2.fl.yelpcdn.com/bphoto/zhLmXjHMedHiWDR6VT0Ljg/o.jpg",
    "alias": "italian",
    "title": "Italian"
  },
  {
    "id": "arKiXax3ScSM_z3O-0CIyw",
    "name": "Spasso Italian Grill",
    "review_count": 653,
    "rating": 4.0,
    "price_range": "$$",
    "location": {
      "city": "Philadelphia",
      "state": "PA"
    },
    "image_url": "https://s3-media1.fl.yelpcdn.com/bphoto/0hDAi840F6gv2RVWRwuXuQ/o.jpg",
    "alias": "italian",
    "title": "Italian"
  },
  {
    "id": "_UOg5_pk9IhKee91eWrT4A",
    "name": "Sweet Lucy's Smokehouse",
    "review_count": 902,
    "rating": 4.5,
    "price_range": "$$",
    "location": {
      "city": "Philadelphia",
      "state": "PA"
    },
    "image_url": "https://s3-media3.fl.yelpcdn.com/bphoto/8F5XXOTbuT5Vhjd85Fleaw/o.jpg",
    "alias": "bbq",
    "title": "Barbeque"
  },
  {
    "id": "jS3affmkXWrBnidXA-DIfQ",
    "name": "Butcher Bar",
    "review_count": 768,
    "rating": 4.0,
    "price_range": "$$",
    "location": {
      "city": "Philadelphia",
      "state": "PA"
    },
    "image_url": "https://s3-media2.fl.yelpcdn.com/bphoto/O-AhSuDzYViRdvIEflBqIA/o.jpg",
    "alias": "steak",
    "title": "Steakhouses"
  },
  {
    "id": "ILvJAuSP0sYWJKAQ-Goh4Q",
    "name": "Kensington Quarters",
    "review_count": 377,
    "rating": 4.0,
    "price_range": "$$$",
    "location": {
      "city": "Philadelphia",
      "state": "PA"
    },
    "image_url": "https://s3-media4.fl.yelpcdn.com/bphoto/gmlgJfT6QAxFu46887csJw/o.jpg",
    "alias": "tradamerican",
    "title": "American"
  },
  {
    "id": "Ek6iqYGdYtyltAxVnhtJKQ",
    "name": "JG SkyHigh",
    "review_count": 253,
    "rating": 4.0,
    "price_range": null,
    "location": {
      "city": "Philadelphia",
      "state": "PA"
    },
    "image_url": "https://s3-media3.fl.yelpcdn.com/bphoto/cmeA2X5E42CNxZ1B1qlEHA/o.jpg",
    "alias": "bars",
    "title": "Bars"
  },
  {
    "id": "05ev984NYfimRN0UiFrxaA",
    "name": "Osteria",
    "review_count": 997,
    "rating": 4.0,
    "price_range": "$$$",
    "location": {
      "city": "Philadelphia",
      "state": "PA"
    },
    "image_url": "https://s3-media2.fl.yelpcdn.com/bphoto/Ic-pAN8ozmJKiFwsvRFCog/o.jpg",
    "alias": "italian",
    "title": "Italian"
  },
  {
    "id": "2SYEGA2fZLdzZQ9lmIfM5Q",
    "name": "Urban Village Brewing Co",
    "review_count": 281,
    "rating": 4.0,
    "price_range": "$$",
    "location": {
      "city": "Philadelphia",
      "state": "PA"
    },
    "image_url": "https://s3-media3.fl.yelpcdn.com/bphoto/Ezj1mK__Jptkoqi_WAj_NA/o.jpg",
    "alias": "breweries",
    "title": "Breweries"
  },
  {
    "id": "IvAa7PvfOYl0xRML5W3ebg",
    "name": "Yards Brewing Company",
    "review_count": 932,
    "rating": 4.5,
    "price_range": "$$",
    "location": {
      "city": "Philadelphia",
      "state": "PA"
    },
    "image_url": "https://s3-media3.fl.yelpcdn.com/bphoto/Vly6D85Ff7V4J81aDTMM1w/o.jpg",
    "alias": "breweries",
    "title": "Breweries"
  },
  {
    "id": "HHBbetQ-XRQYJprT5Qp9jw",
    "name": "Gaul & Co. Malthouse",
    "review_count": 156,
    "rating": 4.5,
    "price_range": "$$",
    "location": {
      "city": "Philadelphia",
      "state": "PA"
    },
    "image_url": "https://s3-media1.fl.yelpcdn.com/bphoto/q1cFXaz-GuTlYGj7TobRGg/o.jpg",
    "alias": "newamerican",
    "title": "New American"
  },
  {
    "id": "F8yozE3NWnImNApHO347gQ",
    "name": "Marrakesh",
    "review_count": 783,
    "rating": 4.5,
    "price_range": "$$$",
    "location": {
      "city": "Philadelphia",
      "state": "PA"
    },
    "image_url": "https://s3-media2.fl.yelpcdn.com/bphoto/bTIXDDvqTY-nr-ejeUGfcw/o.jpg",
    "alias": "moroccan",
    "title": "Moroccan"
  },
  {
    "id": "2wMTDTlHZksbwxc704TKcg",
    "name": "Pearl & Mary Oyster Bar",
    "review_count": 144,
    "rating": 4.5,
    "price_range": null,
    "location": {
      "city": "Philadelphia",
      "state": "PA"
    },
    "image_url": "https://s3-media2.fl.yelpcdn.com/bphoto/_SXq47XmwK5_mT5kVWIvyQ/o.jpg",
    "alias": "bars",
    "title": "Bars"
  },
  {
    "id": "617w8MQE3z1szmLvs0WfCw",
    "name": "Bar Bomb\u00f3n",
    "review_count": 832,
    "rating": 4.0,
    "price_range": "$$",
    "location": {
      "city": "Philadelphia",
      "state": "PA"
    },
    "image_url": "https://s3-media3.fl.yelpcdn.com/bphoto/qtWCfLwizAw8Vx3EMLLgLg/o.jpg",
    "alias": "vegetarian",
    "title": "Vegetarian"
  },
  {
    "id": "KrKQChZ1hwHHVaUK9Zc-Ag",
    "name": "Iron Hill Brewery & Restaurant",
    "review_count": 487,
    "rating": 4.0,
    "price_range": "$$",
    "location": {
      "city": "Philadelphia",
      "state": "PA"
    },
    "image_url": "https://s3-media4.fl.yelpcdn.com/bphoto/W2hbQmqszOFnEh_reIaDkg/o.jpg",
    "alias": "tradamerican",
    "title": "American"
  },
  {
    "id": "vtSisxaozZ7HWpBl_W7VaQ",
    "name": "Time",
    "review_count": 628,
    "rating": 4.0,
    "price_range": "$$",
    "location": {
      "city": "Philadelphia",
      "state": "PA"
    },
    "image_url": "https://s3-media2.fl.yelpcdn.com/bphoto/kbiMkyg_NWLGof3xi2EntQ/o.jpg",
    "alias": "newamerican",
    "title": "New American"
  },
  {
    "id": "un0xxX785wfQfprryh0TjQ",
    "name": "Lucky's Last Chance",
    "review_count": 702,
    "rating": 4.5,
    "price_range": "$$",
    "location": {
      "city": "Philadelphia",
      "state": "PA"
    },
    "image_url": "https://s3-media1.fl.yelpcdn.com/bphoto/3mabgTYXobTGrV23cFgJnQ/o.jpg",
    "alias": "bars",
    "title": "Bars"
  },
  {
    "id": "erz6oUEJdx787WyOlxMARw",
    "name": "Dante & Luigi's",
    "review_count": 494,
    "rating": 4.5,
    "price_range": "$$",
    "location": {
      "city": "Philadelphia",
      "state": "PA"
    },
    "image_url": "https://s3-media1.fl.yelpcdn.com/bphoto/4bKUyHkhuC3U5CrNXdN1DA/o.jpg",
    "alias": "italian",
    "title": "Italian"
  },
  {
    "id": "woTZpX92uByUgliPrh39Mg",
    "name": "Ocean Prime",
    "review_count": 588,
    "rating": 4.0,
    "price_range": "$$$$",
    "location": {
      "city": "Philadelphia",
      "state": "PA"
    },
    "image_url": "https://s3-media2.fl.yelpcdn.com/bphoto/V4xGb369piBYU6lG-B2k2A/o.jpg",
    "alias": "seafood",
    "title": "Seafood"
  },
  {
    "id": "fEqiXG_B-fn__w0aeF3nBQ",
    "name": "Laurel",
    "review_count": 366,
    "rating": 4.5,
    "price_range": "$$$$",
    "location": {
      "city": "Philadelphia",
      "state": "PA"
    },
    "image_url": "https://s3-media4.fl.yelpcdn.com/bphoto/rlFsoFBQSgEtE2gPHlFoSA/o.jpg",
    "alias": "french",
    "title": "French"
  },
  {
    "id": "G9LZoNlCfRH941q87_JLIg",
    "name": "Mission Taqueria",
    "review_count": 736,
    "rating": 4.0,
    "price_range": "$$",
    "location": {
      "city": "Philadelphia",
      "state": "PA"
    },
    "image_url": "https://s3-media4.fl.yelpcdn.com/bphoto/4MnZTaZsc3T9CGgtzkzXzQ/o.jpg",
    "alias": "mexican",
    "title": "Mexican"
  },
  {
    "id": "wB1Tin0OW1JRpaKM-E3ZYA",
    "name": "National Mechanics",
    "review_count": 931,
    "rating": 4.0,
    "price_range": "$$",
    "location": {
      "city": "Philadelphia",
      "state": "PA"
    },
    "image_url": "https://s3-media1.fl.yelpcdn.com/bphoto/XIL0f--zTTiCOvA-vIG_fQ/o.jpg",
    "alias": "pubs",
    "title": "Pubs"
  },
  {
    "id": "E0AKqwkebF15_hvzNSyGlQ",
    "name": "P. J. Clarke's",
    "review_count": 190,
    "rating": 4.0,
    "price_range": "$$",
    "location": {
      "city": "Philadelphia",
      "state": "PA"
    },
    "image_url": "https://s3-media1.fl.yelpcdn.com/bphoto/boaxwZvHdK0vA6kHpHG4lQ/o.jpg",
    "alias": "cocktailbars",
    "title": "Cocktail Bars"
  },
  {
    "id": "trwHwsXOVV-ZmF-MtP98BA",
    "name": "High Street Philadelphia",
    "review_count": 856,
    "rating": 4.0,
    "price_range": "$$",
    "location": {
      "city": "Philadelphia",
      "state": "PA"
    },
    "image_url": "https://s3-media1.fl.yelpcdn.com/bphoto/UmY8hKkhhvC-WjMUbhT9DQ/o.jpg",
    "alias": "newamerican",
    "title": "New American"
  },
  {
    "id": "rOspf7E1Y8YAbVXTZyl-tQ",
    "name": "Cedar Point Bar and Kitchen",
    "review_count": 358,
    "rating": 4.0,
    "price_range": "$$",
    "location": {
      "city": "Philadelphia",
      "state": "PA"
    },
    "image_url": "https://s3-media4.fl.yelpcdn.com/bphoto/HAj-AA89ImoVjD6khyAkmQ/o.jpg",
    "alias": "tradamerican",
    "title": "American"
  },
  {
    "id": "HDGTOksawKXEPeoCUrH96g",
    "name": "Jean-Georges Philadelphia",
    "review_count": 153,
    "rating": 4.0,
    "price_range": "$$$$",
    "location": {
      "city": "Philadelphia",
      "state": "PA"
    },
    "image_url": "https://s3-media1.fl.yelpcdn.com/bphoto/mNGO1js7pTZXymOKFNJQOw/o.jpg",
    "alias": "newamerican",
    "title": "New American"
  },
  {
    "id": "GAuweBrcC_wK3a0UhZjwfA",
    "name": "Loco Pez",
    "review_count": 703,
    "rating": 4.0,
    "price_range": "$$",
    "location": {
      "city": "Philadelphia",
      "state": "PA"
    },
    "image_url": "https://s3-media3.fl.yelpcdn.com/bphoto/LVTiVH4FgZBEifAnWeo3Rg/o.jpg",
    "alias": "bars",
    "title": "Bars"
  },
  {
    "id": "BryQISFnkCdcJET-tpAx3w",
    "name": "Isot Mediterranean Cuisine",
    "review_count": 527,
    "rating": 4.5,
    "price_range": "$$",
    "location": {
      "city": "Philadelphia",
      "state": "PA"
    },
    "image_url": "https://s3-media4.fl.yelpcdn.com/bphoto/Ro3nHriWGCH1uhAUw1kA7A/o.jpg",
    "alias": "mediterranean",
    "title": "Mediterranean"
  },
  {
    "id": "sVZb87xjhbCWHQ2UXOGLrA",
    "name": "Giorgio On Pine",
    "review_count": 1117,
    "rating": 4.5,
    "price_range": "$$",
    "location": {
      "city": "Philadelphia",
      "state": "PA"
    },
    "image_url": "https://s3-media1.fl.yelpcdn.com/bphoto/K0lHgAwRcC6MPrImpLo5og/o.jpg",
    "alias": "italian",
    "title": "Italian"
  },
  {
    "id": "y1Z9tymuBGVDZnYZoLk-2Q",
    "name": "Fork",
    "review_count": 747,
    "rating": 4.0,
    "price_range": "$$$",
    "location": {
      "city": "Philadelphia",
      "state": "PA"
    },
    "image_url": "https://s3-media4.fl.yelpcdn.com/bphoto/6KfdDjejvms_7mWxoK4dkQ/o.jpg",
    "alias": "newamerican",
    "title": "New American"
  },
  {
    "id": "HbnWgfnaX-kUobTx2QTWpQ",
    "name": "Kalaya",
    "review_count": 255,
    "rating": 4.0,
    "price_range": null,
    "location": {
      "city": "Philadelphia",
      "state": "PA"
    },
    "image_url": "https://s3-media4.fl.yelpcdn.com/bphoto/GXfcrfTduPzBWwZ38GCmBQ/o.jpg",
    "alias": "thai",
    "title": "Thai"
  },
  {
    "id": "VSDdUwXktnvL_O0meKv7MQ",
    "name": "Alice Pizza",
    "review_count": 321,
    "rating": 4.5,
    "price_range": "$$",
    "location": {
      "city": "Philadelphia",
      "state": "PA"
    },
    "image_url": "https://s3-media1.fl.yelpcdn.com/bphoto/-PalNDmCnBNO3lo-kAm-1w/o.jpg",
    "alias": "pizza",
    "title": "Pizza"
  },
  {
    "id": "_OgwyI_0mGs620_ZfKgzbg",
    "name": "Tierra Colombiana Restaurant",
    "review_count": 451,
    "rating": 4.0,
    "price_range": "$$",
    "location": {
      "city": "Philadelphia",
      "state": "PA"
    },
    "image_url": "https://s3-media1.fl.yelpcdn.com/bphoto/q6epBk2dEULZr2-UE64WKg/o.jpg",
    "alias": "latin",
    "title": "Latin American"
  },
  {
    "id": "Q-prSTdggNlxAEFV88BZOw",
    "name": "Tria Cafe Wash West",
    "review_count": 796,
    "rating": 4.5,
    "price_range": "$$",
    "location": {
      "city": "Philadelphia",
      "state": "PA"
    },
    "image_url": "https://s3-media3.fl.yelpcdn.com/bphoto/ierSPD9Nk9qREqV_1wpP7w/o.jpg",
    "alias": "wine_bars",
    "title": "Wine Bars"
  },
  {
    "id": "BWITd9JUXP3gSi1z3Y-z8g",
    "name": "In Riva",
    "review_count": 799,
    "rating": 4.0,
    "price_range": "$$",
    "location": {
      "city": "Philadelphia",
      "state": "PA"
    },
    "image_url": "https://s3-media1.fl.yelpcdn.com/bphoto/jYxdbH3U4ORgFzSs_YcPGw/o.jpg",
    "alias": "italian",
    "title": "Italian"
  },
  {
    "id": "W06QBC9vkxA5CVBNVrOMRA",
    "name": "North Third",
    "review_count": 708,
    "rating": 4.0,
    "price_range": "$$",
    "location": {
      "city": "Philadelphia",
      "state": "PA"
    },
    "image_url": "https://s3-media4.fl.yelpcdn.com/bphoto/jfPllUh0szB1-gTbXDw8Wg/o.jpg",
    "alias": "bars",
    "title": "Bars"
  },
  {
    "id": "xQE1fuwKCXJEBcJgSSCNbw",
    "name": "Urban Farmer Philadelphia",
    "review_count": 748,
    "rating": 4.0,
    "price_range": "$$$",
    "location": {
      "city": "Philadelphia",
      "state": "PA"
    },
    "image_url": "https://s3-media1.fl.yelpcdn.com/bphoto/i30sXmLx8wi2ypOuW-pRJw/o.jpg",
    "alias": "tradamerican",
    "title": "American"
  },
  {
    "id": "3xEfhRaWMSTN8XcuMgBjQA",
    "name": "Fiorino",
    "review_count": 423,
    "rating": 4.5,
    "price_range": "$$",
    "location": {
      "city": "Philadelphia",
      "state": "PA"
    },
    "image_url": "https://s3-media3.fl.yelpcdn.com/bphoto/01cDauiPZmp6QNP6WbKZtw/o.jpg",
    "alias": "italian",
    "title": "Italian"
  },
  {
    "id": "4wq9bzoCe3Mh0cPbYH1eDg",
    "name": "Max's Steaks",
    "review_count": 829,
    "rating": 4.0,
    "price_range": "$$",
    "location": {
      "city": "Philadelphia",
      "state": "PA"
    },
    "image_url": "https://s3-media2.fl.yelpcdn.com/bphoto/OhGLUPggAELOuXNUpHIJDA/o.jpg",
    "alias": "sandwiches",
    "title": "Sandwiches"
  },
  {
    "id": "M6qDX8HZS7gOJ_pBOAih1g",
    "name": "Royal Boucherie",
    "review_count": 278,
    "rating": 4.0,
    "price_range": "$$$",
    "location": {
      "city": "Philadelphia",
      "state": "PA"
    },
    "image_url": "https://s3-media2.fl.yelpcdn.com/bphoto/SFbCg9IUAXQk1VJlT--i4g/o.jpg",
    "alias": "brasseries",
    "title": "Brasseries"
  },
  {
    "id": "ozOneB4jXOD6hv5WBGj4KQ",
    "name": "Ristorante Pesto",
    "review_count": 691,
    "rating": 4.5,
    "price_range": "$$",
    "location": {
      "city": "Philadelphia",
      "state": "PA"
    },
    "image_url": "https://s3-media3.fl.yelpcdn.com/bphoto/DKuKrK1JNP6DFKPM7ffLbA/o.jpg",
    "alias": "italian",
    "title": "Italian"
  },
  {
    "id": "cFSyJluKa2SHtgMMvlx6SQ",
    "name": "Angelo's Pizzeria",
    "review_count": 731,
    "rating": 4.5,
    "price_range": "$$",
    "location": {
      "city": "Philadelphia",
      "state": "PA"
    },
    "image_url": "https://s3-media4.fl.yelpcdn.com/bphoto/nCuxi7rqEyukAg1tLVXE-g/o.jpg",
    "alias": "pizza",
    "title": "Pizza"
  },
  {
    "id": "atZ_olNKXOG4rEr6mccN8g",
    "name": "Beiler's Bakery",
    "review_count": 1524,
    "rating": 4.5,
    "price_range": "$",
    "location": {
      "city": "Philadelphia",
      "state": "PA"
    },
    "image_url": "https://s3-media1.fl.yelpcdn.com/bphoto/-A4A-Kn4Pd0W4Dl8BDuIGA/o.jpg",
    "alias": "bakeries",
    "title": "Bakeries"
  },
  {
    "id": "s9ceDy-cVHe0uzvZpWq87Q",
    "name": "EMei",
    "review_count": 655,
    "rating": 4.5,
    "price_range": "$$",
    "location": {
      "city": "Philadelphia",
      "state": "PA"
    },
    "image_url": "https://s3-media3.fl.yelpcdn.com/bphoto/N-PSycgkXyNDK3zeMY3XIw/o.jpg",
    "alias": "szechuan",
    "title": "Szechuan"
  },
  {
    "id": "e3Y3hDpwHc9RmQlJtIgHuw",
    "name": "Lacroix at The Rittenhouse",
    "review_count": 469,
    "rating": 4.5,
    "price_range": "$$$$",
    "location": {
      "city": "Philadelphia",
      "state": "PA"
    },
    "image_url": "https://s3-media1.fl.yelpcdn.com/bphoto/Mz55_BArLyJPRb2feGlI1A/o.jpg",
    "alias": "newamerican",
    "title": "New American"
  },
  {
    "id": "ZKPrXH_GNW_AtZ31tP3NmA",
    "name": "White Dog Cafe",
    "review_count": 1546,
    "rating": 4.0,
    "price_range": "$$",
    "location": {
      "city": "Philadelphia",
      "state": "PA"
    },
    "image_url": "https://s3-media4.fl.yelpcdn.com/bphoto/nUgAfcjENhKkAt84TG4R8A/o.jpg",
    "alias": "bars",
    "title": "Bars"
  },
  {
    "id": "tYn8hGpZiRgJ8cP2FcI_YQ",
    "name": "City Tap House",
    "review_count": 566,
    "rating": 4.0,
    "price_range": "$$",
    "location": {
      "city": "Philadelphia",
      "state": "PA"
    },
    "image_url": "https://s3-media2.fl.yelpcdn.com/bphoto/-ConO_kvd1yzsz4QsiAa4g/o.jpg",
    "alias": "gastropubs",
    "title": "Gastropubs"
  },
  {
    "id": "GoYSJ-YY-YwbxdgasHuq-Q",
    "name": "Mixto Restaurant",
    "review_count": 1374,
    "rating": 4.0,
    "price_range": "$$",
    "location": {
      "city": "Philadelphia",
      "state": "PA"
    },
    "image_url": "https://s3-media1.fl.yelpcdn.com/bphoto/tbZyJ92RDm2FiCdj-yBF3A/o.jpg",
    "alias": "latin",
    "title": "Latin American"
  },
  {
    "id": "TunmRrfZb7bt53T6HJi4UQ",
    "name": "Bleu Sushi",
    "review_count": 1092,
    "rating": 4.5,
    "price_range": "$$",
    "location": {
      "city": "Philadelphia",
      "state": "PA"
    },
    "image_url": "https://s3-media3.fl.yelpcdn.com/bphoto/XHlxvOTOoca8ZGqYIKzvrg/o.jpg",
    "alias": "sushi",
    "title": "Sushi Bars"
  },
  {
    "id": "9mA9qYqiv4c0T9ASid3PIQ",
    "name": "The Capital Grille",
    "review_count": 726,
    "rating": 4.0,
    "price_range": "$$$",
    "location": {
      "city": "Philadelphia",
      "state": "PA"
    },
    "image_url": "https://s3-media1.fl.yelpcdn.com/bphoto/MnGfS1lrpD2ZxDoQdpK-KQ/o.jpg",
    "alias": "steak",
    "title": "Steakhouses"
  },
  {
    "id": "0RuvlgTnKFbX3IK0ZOOocA",
    "name": "Green Eggs Caf\u00e9",
    "review_count": 2931,
    "rating": 4.0,
    "price_range": "$$",
    "location": {
      "city": "Philadelphia",
      "state": "PA"
    },
    "image_url": "https://s3-media1.fl.yelpcdn.com/bphoto/8osV0DR1Hdx1QjMChdvkig/o.jpg",
    "alias": "breakfast_brunch",
    "title": "Breakfast & Brunch"
  },
  {
    "id": "68ThEdiK0eWCEgGEmV9Tng",
    "name": "Southgate",
    "review_count": 371,
    "rating": 4.0,
    "price_range": "$$",
    "location": {
      "city": "Philadelphia",
      "state": "PA"
    },
    "image_url": "https://s3-media2.fl.yelpcdn.com/bphoto/viividuyNUty-AWBKx4RAA/o.jpg",
    "alias": "korean",
    "title": "Korean"
  },
  {
    "id": "OdIBX09glfXNVSyd0RnIeg",
    "name": "Monk's Cafe",
    "review_count": 2328,
    "rating": 4.0,
    "price_range": "$$",
    "location": {
      "city": "Philadelphia",
      "state": "PA"
    },
    "image_url": "https://s3-media1.fl.yelpcdn.com/bphoto/CTcDks48rLBFNk9-AWflEg/o.jpg",
    "alias": "pubs",
    "title": "Pubs"
  },
  {
    "id": "EtKSTHV5Qx_Q7Aur9o4kQQ",
    "name": "Village Whiskey",
    "review_count": 1648,
    "rating": 4.0,
    "price_range": "$$",
    "location": {
      "city": "Philadelphia",
      "state": "PA"
    },
    "image_url": "https://s3-media2.fl.yelpcdn.com/bphoto/vehDWBFQBvv4iE11UlA6vg/o.jpg",
    "alias": "newamerican",
    "title": "New American"
  },
  {
    "id": "EhotxJEJxpMgCJ0F82Buvg",
    "name": "The Olde Bar",
    "review_count": 411,
    "rating": 4.0,
    "price_range": "$$$",
    "location": {
      "city": "Philadelphia",
      "state": "PA"
    },
    "image_url": "https://s3-media1.fl.yelpcdn.com/bphoto/wpdbq8lxJMdMiJzyaqfd8g/o.jpg",
    "alias": "cocktailbars",
    "title": "Cocktail Bars"
  },
  {
    "id": "oVwEPg-BADIFl2SlGma6jg",
    "name": "Burrata",
    "review_count": 215,
    "rating": 4.5,
    "price_range": "$$",
    "location": {
      "city": "Philadelphia",
      "state": "PA"
    },
    "image_url": "https://s3-media4.fl.yelpcdn.com/bphoto/VNALBQHCy-XcHEQoR0aeqw/o.jpg",
    "alias": "italian",
    "title": "Italian"
  },
  {
    "id": "7pAgxBMUjrVPH7xh3fn-gw",
    "name": "Oh Brother Philly",
    "review_count": 834,
    "rating": 4.5,
    "price_range": "$$",
    "location": {
      "city": "Philadelphia",
      "state": "PA"
    },
    "image_url": "https://s3-media3.fl.yelpcdn.com/bphoto/wI_SQAdxZjqAjNQZbpGomw/o.jpg",
    "alias": "cheesesteaks",
    "title": "Cheesesteaks"
  },
  {
    "id": "rKggQN5KT6AtOlmuJ8NAZQ",
    "name": "Cook and Shaker",
    "review_count": 191,
    "rating": 4.5,
    "price_range": "$$",
    "location": {
      "city": "Philadelphia",
      "state": "PA"
    },
    "image_url": "https://s3-media1.fl.yelpcdn.com/bphoto/r_8sMDrMPX_29gBdbMpbMg/o.jpg",
    "alias": "comfortfood",
    "title": "Comfort Food"
  },
  {
    "id": "JHRlwxxKY0JJcU97rJ-Bug",
    "name": "Cuba Libre Restaurant & Rum Bar - Philadelphia",
    "review_count": 1374,
    "rating": 4.0,
    "price_range": "$$$",
    "location": {
      "city": "Philadelphia",
      "state": "PA"
    },
    "image_url": "https://s3-media1.fl.yelpcdn.com/bphoto/IhFdazilA17A3qB_4nVL_A/o.jpg",
    "alias": "cuban",
    "title": "Cuban"
  },
  {
    "id": "q9WA6PqTLnB78DWPu5YJ5A",
    "name": "Perla",
    "review_count": 279,
    "rating": 4.5,
    "price_range": "$$$",
    "location": {
      "city": "Philadelphia",
      "state": "PA"
    },
    "image_url": "https://s3-media2.fl.yelpcdn.com/bphoto/Obr2YitLP6gbZbNdxMP1AQ/o.jpg",
    "alias": "filipino",
    "title": "Filipino"
  },
  {
    "id": "7mpYTDb24SywNMRn3yeakQ",
    "name": "The Twisted Tail",
    "review_count": 686,
    "rating": 4.0,
    "price_range": "$$",
    "location": {
      "city": "Philadelphia",
      "state": "PA"
    },
    "image_url": "https://s3-media4.fl.yelpcdn.com/bphoto/xLPxmkdKFI3V9kCT9RMnJw/o.jpg",
    "alias": "venues",
    "title": "Venues & Event Spaces"
  },
  {
    "id": "vVfy055EfLMdd0yJYHxiMQ",
    "name": "A La Mousse",
    "review_count": 802,
    "rating": 4.5,
    "price_range": "$$",
    "location": {
      "city": "Philadelphia",
      "state": "PA"
    },
    "image_url": "https://s3-media1.fl.yelpcdn.com/bphoto/rQ6xGAjVMwU439agGcErIg/o.jpg",
    "alias": "desserts",
    "title": "Desserts"
  },
  {
    "id": "QSmuCHi63m8zEJvUc6SDAA",
    "name": "Monster Vegan",
    "review_count": 199,
    "rating": 4.5,
    "price_range": "$$",
    "location": {
      "city": "Philadelphia",
      "state": "PA"
    },
    "image_url": "https://s3-media1.fl.yelpcdn.com/bphoto/KJl1P_hWNeAw5R2usx-TtQ/o.jpg",
    "alias": "vegan",
    "title": "Vegan"
  },
  {
    "id": "8P8HIysyyGbG8_94cG1Jyg",
    "name": "Entree Byob",
    "review_count": 466,
    "rating": 4.5,
    "price_range": "$$$",
    "location": {
      "city": "Philadelphia",
      "state": "PA"
    },
    "image_url": "https://s3-media4.fl.yelpcdn.com/bphoto/3x_zRI0pHkuTKOV9h9c4hA/o.jpg",
    "alias": "newamerican",
    "title": "New American"
  },
  {
    "id": "KDplhtRYnHOCnuIjIGR8fA",
    "name": "The Goat's Beard",
    "review_count": 562,
    "rating": 4.0,
    "price_range": "$$",
    "location": {
      "city": "Philadelphia",
      "state": "PA"
    },
    "image_url": "https://s3-media2.fl.yelpcdn.com/bphoto/3xijyG-RXokn1XCIT0ZLiQ/o.jpg",
    "alias": "comfortfood",
    "title": "Comfort Food"
  },
  {
    "id": "lEUxWfqAFykLzuGAv80w0A",
    "name": "Pera Turkish Cuisine",
    "review_count": 127,
    "rating": 4.5,
    "price_range": "$$",
    "location": {
      "city": "Philadelphia",
      "state": "PA"
    },
    "image_url": "https://s3-media3.fl.yelpcdn.com/bphoto/OQbEBHKp9Mm5TtsiqCx5Tg/o.jpg",
    "alias": "turkish",
    "title": "Turkish"
  },
  {
    "id": "LM54ufrINJWoTN5imV8Etw",
    "name": "John's Roast Pork",
    "review_count": 1804,
    "rating": 4.5,
    "price_range": "$$",
    "location": {
      "city": "Philadelphia",
      "state": "PA"
    },
    "image_url": "https://s3-media3.fl.yelpcdn.com/bphoto/qPyjRa1Bu9W6_iC45bth5A/o.jpg",
    "alias": "sandwiches",
    "title": "Sandwiches"
  },
  {
    "id": "PYUI1OJVksGUbCrteU68bw",
    "name": "Bourbon & Branch",
    "review_count": 466,
    "rating": 4.0,
    "price_range": "$$",
    "location": {
      "city": "Philadelphia",
      "state": "PA"
    },
    "image_url": "https://s3-media3.fl.yelpcdn.com/bphoto/JYUT7YSWyyO90gj9CNqc4g/o.jpg",
    "alias": "tradamerican",
    "title": "American"
  },
  {
    "id": "TjwWB-ET-qmO2-8bfIHMig",
    "name": "Cheu Fishtown",
    "review_count": 320,
    "rating": 4.0,
    "price_range": "$$",
    "location": {
      "city": "Philadelphia",
      "state": "PA"
    },
    "image_url": "https://s3-media3.fl.yelpcdn.com/bphoto/i_tXvE1JamtH8kef_oPq-g/o.jpg",
    "alias": "noodles",
    "title": "Noodles"
  },
  {
    "id": "mUdjeVjdsiOQMBK41x0Bow",
    "name": "Sancho Pistola's",
    "review_count": 382,
    "rating": 4.0,
    "price_range": "$$",
    "location": {
      "city": "Philadelphia",
      "state": "PA"
    },
    "image_url": "https://s3-media2.fl.yelpcdn.com/bphoto/tIhoQhUx8WDNlPB-xBr1kQ/o.jpg",
    "alias": "mexican",
    "title": "Mexican"
  },
  {
    "id": "fB_VJEJTIMyWv5hC9T-xwA",
    "name": "So Korean Grill",
    "review_count": 110,
    "rating": 4.5,
    "price_range": null,
    "location": {
      "city": "Philadelphia",
      "state": "PA"
    },
    "image_url": "https://s3-media1.fl.yelpcdn.com/bphoto/Ot6vjLJeQVEI-EU3e2XrqQ/o.jpg",
    "alias": "korean",
    "title": "Korean"
  },
  {
    "id": "9c7MUiE6VI8NesjPdj5FkA",
    "name": "Bubblefish",
    "review_count": 600,
    "rating": 4.0,
    "price_range": "$$",
    "location": {
      "city": "Philadelphia",
      "state": "PA"
    },
    "image_url": "https://s3-media4.fl.yelpcdn.com/bphoto/XezEPyiaagdNI5Q2fCu5kw/o.jpg",
    "alias": "taiwanese",
    "title": "Taiwanese"
  },
  {
    "id": "itv5mVA2lkp_ivhSdmKGgw",
    "name": "Seorabol Korean Restaurant",
    "review_count": 584,
    "rating": 4.0,
    "price_range": "$$",
    "location": {
      "city": "Philadelphia",
      "state": "PA"
    },
    "image_url": "https://s3-media2.fl.yelpcdn.com/bphoto/U8lVu3E4P1aBU-NsGsCbXA/o.jpg",
    "alias": "korean",
    "title": "Korean"
  },
  {
    "id": "AaTpjyw-EiODgi3tR4Xr-g",
    "name": "Estia",
    "review_count": 847,
    "rating": 4.0,
    "price_range": "$$$",
    "location": {
      "city": "Philadelphia",
      "state": "PA"
    },
    "image_url": "https://s3-media1.fl.yelpcdn.com/bphoto/o7F_UuuxUKaE3M6dJRq3ow/o.jpg",
    "alias": "greek",
    "title": "Greek"
  },
  {
    "id": "yP1IBeS0hPYqSTB5bzxxZA",
    "name": "Tio Pepe Restaurant & Bar",
    "review_count": 109,
    "rating": 4.5,
    "price_range": "$$",
    "location": {
      "city": "Philadelphia",
      "state": "PA"
    },
    "image_url": "https://s3-media2.fl.yelpcdn.com/bphoto/uxQ190fvYv3HQVoVi-XABw/o.jpg",
    "alias": "portuguese",
    "title": "Portuguese"
  },
  {
    "id": "IS3h8_4gL_IbmpVTKDB3LA",
    "name": "Royal Sushi & Izakaya",
    "review_count": 358,
    "rating": 4.5,
    "price_range": "$$",
    "location": {
      "city": "Philadelphia",
      "state": "PA"
    },
    "image_url": "https://s3-media2.fl.yelpcdn.com/bphoto/u0eDwElsdlleiHBpZDk4ng/o.jpg",
    "alias": "izakaya",
    "title": "Izakaya"
  },
  {
    "id": "GWqPmrWu0kXB_-gB1H-j6A",
    "name": "Love & Honey Fried Chicken",
    "review_count": 476,
    "rating": 4.5,
    "price_range": "$$",
    "location": {
      "city": "Philadelphia",
      "state": "PA"
    },
    "image_url": "https://s3-media3.fl.yelpcdn.com/bphoto/_5aapSJQi9jKHWAebvzu_g/o.jpg",
    "alias": "chickenshop",
    "title": "Chicken Shop"
  },
  {
    "id": "qISf5ojuYbD9h71NumGUQA",
    "name": "Han Dynasty",
    "review_count": 1536,
    "rating": 4.0,
    "price_range": "$$",
    "location": {
      "city": "Philadelphia",
      "state": "PA"
    },
    "image_url": "https://s3-media3.fl.yelpcdn.com/bphoto/6IRWt-CtmDPIwHx2psYIMQ/o.jpg",
    "alias": "szechuan",
    "title": "Szechuan"
  },
  {
    "id": "ZCj5o6j6_0JjGOe04WoLsg",
    "name": "Banh Mi and Bottles",
    "review_count": 300,
    "rating": 4.0,
    "price_range": "$$",
    "location": {
      "city": "Philadelphia",
      "state": "PA"
    },
    "image_url": "https://s3-media1.fl.yelpcdn.com/bphoto/mqY_muPVLZN2G5rm-JGjKA/o.jpg",
    "alias": "vietnamese",
    "title": "Vietnamese"
  },
  {
    "id": "IWHdx0NhDKADkGOgXgOFKQ",
    "name": "Tommy DiNic's",
    "review_count": 2364,
    "rating": 4.0,
    "price_range": "$$",
    "location": {
      "city": "Philadelphia",
      "state": "PA"
    },
    "image_url": "https://s3-media3.fl.yelpcdn.com/bphoto/xPGRDCXmPXLstxQAPFb8yg/o.jpg",
    "alias": "tradamerican",
    "title": "American"
  },
  {
    "id": "hxPnlWZmirx7neooZykmtg",
    "name": "Sutton's",
    "review_count": 91,
    "rating": 5.0,
    "price_range": "$$",
    "location": {
      "city": "Philadelphia",
      "state": "PA"
    },
    "image_url": "https://s3-media4.fl.yelpcdn.com/bphoto/rwV13gjf5iUWzvKeCT9b7w/o.jpg",
    "alias": "tradamerican",
    "title": "American"
  },
  {
    "id": "6x9hcZ1CJ4S9avBgPGS7-Q",
    "name": "Johnny Brenda's",
    "review_count": 595,
    "rating": 4.0,
    "price_range": "$$",
    "location": {
      "city": "Philadelphia",
      "state": "PA"
    },
    "image_url": "https://s3-media2.fl.yelpcdn.com/bphoto/miOcxc_OCDpr1ZGT2Gyu_Q/o.jpg",
    "alias": "bars",
    "title": "Bars"
  },
  {
    "id": "IP_E4SHLClorhNg4o5bw9Q",
    "name": "Rosy's Taco Bar",
    "review_count": 378,
    "rating": 4.0,
    "price_range": "$$",
    "location": {
      "city": "Philadelphia",
      "state": "PA"
    },
    "image_url": "https://s3-media4.fl.yelpcdn.com/bphoto/6GVOPE987zfvD_jQUAxzNQ/o.jpg",
    "alias": "tacos",
    "title": "Tacos"
  },
  {
    "id": "P8HDFFrJ0aA_g2Ng9DjpHw",
    "name": "Olea",
    "review_count": 98,
    "rating": 4.5,
    "price_range": null,
    "location": {
      "city": "Philadelphia",
      "state": "PA"
    },
    "image_url": "https://s3-media2.fl.yelpcdn.com/bphoto/GdxDupxRo8QgFb_D5G7SvQ/o.jpg",
    "alias": "mediterranean",
    "title": "Mediterranean"
  },
  {
    "id": "TbjqvdrSBm27arbKbReRfg",
    "name": "Thanal Indian Tavern",
    "review_count": 306,
    "rating": 4.5,
    "price_range": "$$",
    "location": {
      "city": "Philadelphia",
      "state": "PA"
    },
    "image_url": "https://s3-media1.fl.yelpcdn.com/bphoto/RnZxi3nWikxjMKfKkcCT0w/o.jpg",
    "alias": "indpak",
    "title": "Indian"
  },
  {
    "id": "cGX-1IUwXOjkUqZbkKYcjw",
    "name": "Fogo de Ch\u00e3o Brazilian Steakhouse",
    "review_count": 1582,
    "rating": 4.0,
    "price_range": "$$$$",
    "location": {
      "city": "Philadelphia",
      "state": "PA"
    },
    "image_url": "https://s3-media3.fl.yelpcdn.com/bphoto/tBMGB2RBuuwGsmy09BHssg/o.jpg",
    "alias": "brazilian",
    "title": "Brazilian"
  },
  {
    "id": "ExRxjqOGmkWjArvM_qBORw",
    "name": "The Wayward",
    "review_count": 150,
    "rating": 4.0,
    "price_range": "$$$",
    "location": {
      "city": "Philadelphia",
      "state": "PA"
    },
    "image_url": "https://s3-media2.fl.yelpcdn.com/bphoto/A-72wiGpqRGbrcNAfivd3Q/o.jpg",
    "alias": "brasseries",
    "title": "Brasseries"
  },
  {
    "id": "4R2KR_-FybS7oegGrXjHVg",
    "name": "Del Frisco's Double Eagle Steakhouse",
    "review_count": 1255,
    "rating": 4.0,
    "price_range": "$$$$",
    "location": {
      "city": "Philadelphia",
      "state": "PA"
    },
    "image_url": "https://s3-media1.fl.yelpcdn.com/bphoto/trHzJmFQVhuJFUyT4utlZA/o.jpg",
    "alias": "steak",
    "title": "Steakhouses"
  },
  {
    "id": "MUTTqe8uqyMdBl186RmNeA",
    "name": "Tuna Bar",
    "review_count": 318,
    "rating": 4.5,
    "price_range": "$$",
    "location": {
      "city": "Philadelphia",
      "state": "PA"
    },
    "image_url": "https://s3-media2.fl.yelpcdn.com/bphoto/JYC6ebrhai9__EeYKlaGVA/o.jpg",
    "alias": "japanese",
    "title": "Japanese"
  },
  {
    "id": "QUSctIF_D2yv_NJeokhXFw",
    "name": "Condesa",
    "review_count": 196,
    "rating": 4.0,
    "price_range": "$$$",
    "location": {
      "city": "Philadelphia",
      "state": "PA"
    },
    "image_url": "https://s3-media2.fl.yelpcdn.com/bphoto/Wecqo30OpyUU-ad7zMzzng/o.jpg",
    "alias": "mexican",
    "title": "Mexican"
  },
  {
    "id": "bLJP0fVgscuUQy0hE_CRXA",
    "name": "Xiandu Thai",
    "review_count": 690,
    "rating": 4.0,
    "price_range": "$$",
    "location": {
      "city": "Philadelphia",
      "state": "PA"
    },
    "image_url": "https://s3-media4.fl.yelpcdn.com/bphoto/mhgOgf0qN_SDLk0uq1I-Ug/o.jpg",
    "alias": "thai",
    "title": "Thai"
  },
  {
    "id": "nMDteyIwo3zLbqm45xBwFw",
    "name": "Prince Tea House",
    "review_count": 250,
    "rating": 4.5,
    "price_range": "$$",
    "location": {
      "city": "Philadelphia",
      "state": "PA"
    },
    "image_url": "https://s3-media2.fl.yelpcdn.com/bphoto/RCB91cBVqOnpZLuKKjq2nQ/o.jpg",
    "alias": "coffee",
    "title": "Coffee & Tea"
  },
  {
    "id": "qnprJxrjwuEivitA8V2aEQ",
    "name": "Fiorella",
    "review_count": 296,
    "rating": 4.5,
    "price_range": "$$$",
    "location": {
      "city": "Philadelphia",
      "state": "PA"
    },
    "image_url": "https://s3-media3.fl.yelpcdn.com/bphoto/ntu7O8eXaY0xDbW5ILCgNA/o.jpg",
    "alias": "pastashops",
    "title": "Pasta Shops"
  },
  {
    "id": "3FKIev7ZB_KE6XHL9sUJCg",
    "name": "Strangelove's",
    "review_count": 495,
    "rating": 4.0,
    "price_range": "$$",
    "location": {
      "city": "Philadelphia",
      "state": "PA"
    },
    "image_url": "https://s3-media3.fl.yelpcdn.com/bphoto/o9Mb7a0f9P9r33jiNMb8lw/o.jpg",
    "alias": "bars",
    "title": "Bars"
  },
  {
    "id": "Zofb78HMkCfyQ8S1jCmT9A",
    "name": "Libertee Grounds",
    "review_count": 111,
    "rating": 4.5,
    "price_range": "$$",
    "location": {
      "city": "Philadelphia",
      "state": "PA"
    },
    "image_url": "https://s3-media4.fl.yelpcdn.com/bphoto/JRcCy14yjHFbVYTNkKXwuQ/o.jpg",
    "alias": "beerbar",
    "title": "Beer Bar"
  },
  {
    "id": "NJe5fkia_63rdKXRdJlmkA",
    "name": "Chatayee Thai",
    "review_count": 331,
    "rating": 4.5,
    "price_range": "$$",
    "location": {
      "city": "Philadelphia",
      "state": "PA"
    },
    "image_url": "https://s3-media1.fl.yelpcdn.com/bphoto/2zOxrqLpOUh1olGARurMtw/o.jpg",
    "alias": "thai",
    "title": "Thai"
  },
  {
    "id": "dwh4dy4zyrf-NTqaCYjH6A",
    "name": "Byrne's Tavern\u00ae",
    "review_count": 126,
    "rating": 4.0,
    "price_range": "$$",
    "location": {
      "city": "Philadelphia",
      "state": "PA"
    },
    "image_url": "https://s3-media4.fl.yelpcdn.com/bphoto/LLaNyaCYZtlxPgNGEBpVbQ/o.jpg",
    "alias": "irish",
    "title": "Irish"
  },
  {
    "id": "L4kfcADLCU4T33i7Z0CkuA",
    "name": "Bistro Romano",
    "review_count": 620,
    "rating": 4.0,
    "price_range": "$$",
    "location": {
      "city": "Philadelphia",
      "state": "PA"
    },
    "image_url": "https://s3-media4.fl.yelpcdn.com/bphoto/42ms-kpxQuQ_0HYlhxFhug/o.jpg",
    "alias": "italian",
    "title": "Italian"
  },
  {
    "id": "X3NS8516o015Z1zcOwrqmQ",
    "name": "Jansen",
    "review_count": 174,
    "rating": 4.5,
    "price_range": "$$$",
    "location": {
      "city": "Philadelphia",
      "state": "PA"
    },
    "image_url": "https://s3-media2.fl.yelpcdn.com/bphoto/SMbREz1njVNXtjQ8Nec_ZA/o.jpg",
    "alias": "newamerican",
    "title": "New American"
  },
  {
    "id": "4NYZ-PHH7GDgjfIO7_Vfgg",
    "name": "C\u00e0ph\u00ea Roasters",
    "review_count": 131,
    "rating": 4.5,
    "price_range": "$$",
    "location": {
      "city": "Philadelphia",
      "state": "PA"
    },
    "image_url": "https://s3-media3.fl.yelpcdn.com/bphoto/MNJIWc3RzRcuGDPNYON_Sg/o.jpg",
    "alias": "coffeeroasteries",
    "title": "Coffee Roasteries"
  },
  {
    "id": "DZglT5FP5VNDQJU3PuRIHw",
    "name": "La Calaca Feliz",
    "review_count": 736,
    "rating": 4.0,
    "price_range": "$$",
    "location": {
      "city": "Philadelphia",
      "state": "PA"
    },
    "image_url": "https://s3-media3.fl.yelpcdn.com/bphoto/D1A2K0SVSrggz_nca4WqUA/o.jpg",
    "alias": "mexican",
    "title": "Mexican"
  },
  {
    "id": "EAmx_lbvIBPX7wimjt3cxQ",
    "name": "Morea",
    "review_count": 135,
    "rating": 4.0,
    "price_range": "$$",
    "location": {
      "city": "Philadelphia",
      "state": "PA"
    },
    "image_url": "https://s3-media2.fl.yelpcdn.com/bphoto/Wtrg25sQhaC-QftFN7qgmA/o.jpg",
    "alias": "cocktailbars",
    "title": "Cocktail Bars"
  },
  {
    "id": "9UOYOZHb4-V3hZlPOxUkVQ",
    "name": "Cantina La Martina",
    "review_count": 68,
    "rating": 4.5,
    "price_range": null,
    "location": {
      "city": "Philadelphia",
      "state": "PA"
    },
    "image_url": "https://s3-media1.fl.yelpcdn.com/bphoto/xyVo8dDA6p8z2XlyjxWOZQ/o.jpg",
    "alias": "mexican",
    "title": "Mexican"
  },
  {
    "id": "qjIN4UbE96Cq6JKwLIQ9VQ",
    "name": "Saloon Restaurant",
    "review_count": 235,
    "rating": 4.5,
    "price_range": "$$$",
    "location": {
      "city": "Philadelphia",
      "state": "PA"
    },
    "image_url": "https://s3-media2.fl.yelpcdn.com/bphoto/xfyoRHoYAyyx5hhoNGwdeQ/o.jpg",
    "alias": "italian",
    "title": "Italian"
  },
  {
    "id": "-OIUunijjcq_ZzyyQhPPFQ",
    "name": "Zorba's Taverna",
    "review_count": 556,
    "rating": 4.5,
    "price_range": "$$",
    "location": {
      "city": "Philadelphia",
      "state": "PA"
    },
    "image_url": "https://s3-media4.fl.yelpcdn.com/bphoto/trF2DL4quZ6k445nh6L1Gg/o.jpg",
    "alias": "greek",
    "title": "Greek"
  },
  {
    "id": "qaDImxPguQz0jToNYvB1Eg",
    "name": "Caf\u00e9 y Chocolate",
    "review_count": 412,
    "rating": 4.5,
    "price_range": "$$",
    "location": {
      "city": "Philadelphia",
      "state": "PA"
    },
    "image_url": "https://s3-media2.fl.yelpcdn.com/bphoto/ij4ka6NUWv8kSlfX9OBlUQ/o.jpg",
    "alias": "mexican",
    "title": "Mexican"
  },
  {
    "id": "oXw9R3-fdgAzv0K6d35lkA",
    "name": "QU JAPAN BISTRO & BAR",
    "review_count": 213,
    "rating": 4.5,
    "price_range": "$$",
    "location": {
      "city": "Philadelphia",
      "state": "PA"
    },
    "image_url": "https://s3-media2.fl.yelpcdn.com/bphoto/yRaucASLwFFfAVs_AtO1pQ/o.jpg",
    "alias": "japanese",
    "title": "Japanese"
  },
  {
    "id": "Jn4tRtjIuz6MBCykQySpeg",
    "name": "Woodrow's Sandwich Shop",
    "review_count": 462,
    "rating": 4.5,
    "price_range": "$$",
    "location": {
      "city": "Philadelphia",
      "state": "PA"
    },
    "image_url": "https://s3-media1.fl.yelpcdn.com/bphoto/p1XMYC9HqAe5ws14uKYpZQ/o.jpg",
    "alias": "sandwiches",
    "title": "Sandwiches"
  },
  {
    "id": "hxh1ongobphqXq30V13ukg",
    "name": "Bottle Bar East",
    "review_count": 274,
    "rating": 4.0,
    "price_range": "$$",
    "location": {
      "city": "Philadelphia",
      "state": "PA"
    },
    "image_url": "https://s3-media2.fl.yelpcdn.com/bphoto/JBszhm6i3rleKTV7bGmGmg/o.jpg",
    "alias": "beer_and_wine",
    "title": "Beer, Wine & Spirits"
  },
  {
    "id": "mhm7pNRVZhSr3RBo9Y2NSQ",
    "name": "Kick Axe Throwing",
    "review_count": 179,
    "rating": 4.5,
    "price_range": "$$",
    "location": {
      "city": "Philadelphia",
      "state": "PA"
    },
    "image_url": "https://s3-media3.fl.yelpcdn.com/bphoto/_l2HFqxHYQ_DS1HjwM1gtg/o.jpg",
    "alias": "bars",
    "title": "Bars"
  },
  {
    "id": "8LonS_bxNmCDk3FWiG9lzA",
    "name": "Tomo Sushi & Ramen",
    "review_count": 283,
    "rating": 4.5,
    "price_range": "$$",
    "location": {
      "city": "Philadelphia",
      "state": "PA"
    },
    "image_url": "https://s3-media3.fl.yelpcdn.com/bphoto/ns5BNjpTg0gD09lo25Z7dQ/o.jpg",
    "alias": "sushi",
    "title": "Sushi Bars"
  },
  {
    "id": "u7_3L1NBWgxhBM_B-cmmnA",
    "name": "Pizzeria Vetri",
    "review_count": 722,
    "rating": 4.0,
    "price_range": "$$",
    "location": {
      "city": "Philadelphia",
      "state": "PA"
    },
    "image_url": "https://s3-media3.fl.yelpcdn.com/bphoto/1ezXnFYNl95tEX_hr1c2QQ/o.jpg",
    "alias": "pizza",
    "title": "Pizza"
  },
  {
    "id": "3ldp8B52AOzNSFnPMAY0ww",
    "name": "Fette Sau",
    "review_count": 690,
    "rating": 4.0,
    "price_range": "$$",
    "location": {
      "city": "Philadelphia",
      "state": "PA"
    },
    "image_url": "https://s3-media1.fl.yelpcdn.com/bphoto/dI0t-eyJ_ZBlMD0ZJwS0nw/o.jpg",
    "alias": "bbq",
    "title": "Barbeque"
  },
  {
    "id": "WxB8498ejPtHE7wFa89_fA",
    "name": "The Continental Mid-town",
    "review_count": 1859,
    "rating": 3.5,
    "price_range": "$$",
    "location": {
      "city": "Philadelphia",
      "state": "PA"
    },
    "image_url": "https://s3-media2.fl.yelpcdn.com/bphoto/X4dG7vnld1FeDSL8MD2SLA/o.jpg",
    "alias": "newamerican",
    "title": "New American"
  },
  {
    "id": "-Om8XgP9GZ4UUFbgTRI4YQ",
    "name": "Martha",
    "review_count": 191,
    "rating": 4.0,
    "price_range": "$$",
    "location": {
      "city": "Philadelphia",
      "state": "PA"
    },
    "image_url": "https://s3-media3.fl.yelpcdn.com/bphoto/NWFc0YlgTrHw_Qc-l2Kf1w/o.jpg",
    "alias": "newamerican",
    "title": "New American"
  },
  {
    "id": "jXtaxB2b64nA4uy13i024A",
    "name": "Little Fish",
    "review_count": 563,
    "rating": 4.5,
    "price_range": "$$$",
    "location": {
      "city": "Philadelphia",
      "state": "PA"
    },
    "image_url": "https://s3-media1.fl.yelpcdn.com/bphoto/VLaoLLxdvyiEX_cq3_dUXw/o.jpg",
    "alias": "seafood",
    "title": "Seafood"
  },
  {
    "id": "bn2jWrB_aXdQP4YoyUVVIQ",
    "name": "Seorabol Center City",
    "review_count": 266,
    "rating": 4.0,
    "price_range": "$$",
    "location": {
      "city": "Philadelphia",
      "state": "PA"
    },
    "image_url": "https://s3-media2.fl.yelpcdn.com/bphoto/1fDqtkndk22P-HpQ6ih2XQ/o.jpg",
    "alias": "korean",
    "title": "Korean"
  },
  {
    "id": "kxKai8GE5oDMPevV7oxvbA",
    "name": "Tequilas Restaurant",
    "review_count": 803,
    "rating": 4.0,
    "price_range": "$$$",
    "location": {
      "city": "Philadelphia",
      "state": "PA"
    },
    "image_url": "https://s3-media1.fl.yelpcdn.com/bphoto/bYRlKQr6iYgNBGkc-_Z0tA/o.jpg",
    "alias": "mexican",
    "title": "Mexican"
  },
  {
    "id": "4_W5pstoN1166TGjjPOrMg",
    "name": "Prohibition Taproom",
    "review_count": 654,
    "rating": 4.0,
    "price_range": "$$",
    "location": {
      "city": "Philadelphia",
      "state": "PA"
    },
    "image_url": "https://s3-media2.fl.yelpcdn.com/bphoto/TflnLKwlQ3dAS71L-eFuTw/o.jpg",
    "alias": "gastropubs",
    "title": "Gastropubs"
  },
  {
    "id": "L_Rwy6oSAnMUY3NCDspxmA",
    "name": "The Good King Tavern",
    "review_count": 364,
    "rating": 4.0,
    "price_range": "$$",
    "location": {
      "city": "Philadelphia",
      "state": "PA"
    },
    "image_url": "https://s3-media4.fl.yelpcdn.com/bphoto/di_a07vZy4hO7CvNJcKlvg/o.jpg",
    "alias": "cocktailbars",
    "title": "Cocktail Bars"
  },
  {
    "id": "auwFZzfhe2pvFw43OfsAfw",
    "name": "Stina Pizzeria",
    "review_count": 147,
    "rating": 4.5,
    "price_range": "$$",
    "location": {
      "city": "Philadelphia",
      "state": "PA"
    },
    "image_url": "https://s3-media4.fl.yelpcdn.com/bphoto/OwlNHrqnYf09ChwnP6uaQw/o.jpg",
    "alias": "pizza",
    "title": "Pizza"
  },
  {
    "id": "QhgrhVKlXZtSY6gRThf8zA",
    "name": "Bing Bing Dim Sum",
    "review_count": 629,
    "rating": 4.0,
    "price_range": "$$",
    "location": {
      "city": "Philadelphia",
      "state": "PA"
    },
    "image_url": "https://s3-media3.fl.yelpcdn.com/bphoto/KC8oRo07efzPDo3IlebRxw/o.jpg",
    "alias": "cocktailbars",
    "title": "Cocktail Bars"
  },
  {
    "id": "KkdLjGfVsfGESNkE0ktURg",
    "name": "Joe's Steaks + Soda Shop",
    "review_count": 484,
    "rating": 4.0,
    "price_range": "$$",
    "location": {
      "city": "Philadelphia",
      "state": "PA"
    },
    "image_url": "https://s3-media3.fl.yelpcdn.com/bphoto/ecqTiJz7rE89xaNwnmdULg/o.jpg",
    "alias": "tradamerican",
    "title": "American"
  },
  {
    "id": "_V6hl1oGkTV2KbGeax_HPA",
    "name": "Sang Kee Peking Duck House",
    "review_count": 1065,
    "rating": 4.0,
    "price_range": "$$",
    "location": {
      "city": "Philadelphia",
      "state": "PA"
    },
    "image_url": "https://s3-media3.fl.yelpcdn.com/bphoto/XupNPMrCFjiZiEQZpUVM1g/o.jpg",
    "alias": "chinese",
    "title": "Chinese"
  },
  {
    "id": "_n539Sga7PCvHQs--a4qkA",
    "name": "Interstate Drafthouse",
    "review_count": 268,
    "rating": 4.0,
    "price_range": "$$",
    "location": {
      "city": "Philadelphia",
      "state": "PA"
    },
    "image_url": "https://s3-media4.fl.yelpcdn.com/bphoto/SpOvaI0--HCKqQXok7yoNQ/o.jpg",
    "alias": "southern",
    "title": "Southern"
  },
  {
    "id": "0-7N3z_cb3Z1xMGDrbez6w",
    "name": "Le Virtu",
    "review_count": 431,
    "rating": 4.0,
    "price_range": "$$$",
    "location": {
      "city": "Philadelphia",
      "state": "PA"
    },
    "image_url": "https://s3-media2.fl.yelpcdn.com/bphoto/sZEgQLUI2C9g7LQPtq-bHQ/o.jpg",
    "alias": "italian",
    "title": "Italian"
  },
  {
    "id": "4ZKAGQ2U8M4mtONcAg42cQ",
    "name": "Lucky's Last Chance",
    "review_count": 179,
    "rating": 4.5,
    "price_range": "$$",
    "location": {
      "city": "Philadelphia",
      "state": "PA"
    },
    "image_url": "https://s3-media3.fl.yelpcdn.com/bphoto/3v4fv4Dk0CJCgWkch-76OA/o.jpg",
    "alias": "hotdog",
    "title": "Hot Dogs"
  },
  {
    "id": "bwgK5d9oT2sUcvyBOsTREQ",
    "name": "Sky Cafe",
    "review_count": 278,
    "rating": 4.5,
    "price_range": "$$",
    "location": {
      "city": "Philadelphia",
      "state": "PA"
    },
    "image_url": "https://s3-media2.fl.yelpcdn.com/bphoto/lDZdmCYprw9eUkT9VsAxRw/o.jpg",
    "alias": "indonesian",
    "title": "Indonesian"
  },
  {
    "id": "4_u6ikFiy1MMwPA9ZDkuXQ",
    "name": "Ember & Ash",
    "review_count": 88,
    "rating": 4.5,
    "price_range": null,
    "location": {
      "city": "Philadelphia",
      "state": "PA"
    },
    "image_url": "https://s3-media4.fl.yelpcdn.com/bphoto/mB-41QTTH4eMWrC6E4Mtag/o.jpg",
    "alias": "newamerican",
    "title": "New American"
  },
  {
    "id": "WMkiheTT-8kRslImVLWMVw",
    "name": "Standard Tap",
    "review_count": 826,
    "rating": 4.0,
    "price_range": "$$",
    "location": {
      "city": "Philadelphia",
      "state": "PA"
    },
    "image_url": "https://s3-media1.fl.yelpcdn.com/bphoto/hTheHLL-rttkZ_lameNNHQ/o.jpg",
    "alias": "burgers",
    "title": "Burgers"
  },
  {
    "id": "OHzX-ZD9qyoeoxR8Z0dlIA",
    "name": "Khyber Pass Pub",
    "review_count": 896,
    "rating": 4.0,
    "price_range": "$$",
    "location": {
      "city": "Philadelphia",
      "state": "PA"
    },
    "image_url": "https://s3-media2.fl.yelpcdn.com/bphoto/GymFOpryVzam1N-iZxNbig/o.jpg",
    "alias": "gastropubs",
    "title": "Gastropubs"
  },
  {
    "id": "dYinIkKBspHV5hSaukklFg",
    "name": "L'Angolo Ristorante",
    "review_count": 441,
    "rating": 4.5,
    "price_range": "$$",
    "location": {
      "city": "Philadelphia",
      "state": "PA"
    },
    "image_url": "https://s3-media1.fl.yelpcdn.com/bphoto/iYOo7gCxP0f3k_Zs21O7ww/o.jpg",
    "alias": "italian",
    "title": "Italian"
  },
  {
    "id": "O823FiPDepbCKYo7w2uGAg",
    "name": "Macaroni's Restaurant",
    "review_count": 289,
    "rating": 4.0,
    "price_range": "$$$",
    "location": {
      "city": "Philadelphia",
      "state": "PA"
    },
    "image_url": "https://s3-media3.fl.yelpcdn.com/bphoto/kcbjHHKIaTGrEEOfNubZPg/o.jpg",
    "alias": "italian",
    "title": "Italian"
  },
  {
    "id": "Qw7tz-UkPrpXaVidWuab4Q",
    "name": "Philadelphia Museum of Art",
    "review_count": 875,
    "rating": 4.5,
    "price_range": null,
    "location": {
      "city": "Philadelphia",
      "state": "PA"
    },
    "image_url": "https://s3-media4.fl.yelpcdn.com/bphoto/Em7WFu1ueVOrpWWHqih0Gg/o.jpg",
    "alias": "artmuseums",
    "title": "Art Museums"
  },
  {
    "id": "zucC7rHpXPYBu7aEqj0NUw",
    "name": "Libertine Restauraunt",
    "review_count": 142,
    "rating": 4.0,
    "price_range": null,
    "location": {
      "city": "Philadelphia",
      "state": "PA"
    },
    "image_url": "https://s3-media2.fl.yelpcdn.com/bphoto/FdGJW63uOQTpkoDO6dZPQw/o.jpg",
    "alias": "newamerican",
    "title": "New American"
  },
  {
    "id": "PJjkH_VZeQwxEJvlQ-v7wA",
    "name": "Pho 75",
    "review_count": 619,
    "rating": 4.5,
    "price_range": "$$",
    "location": {
      "city": "Philadelphia",
      "state": "PA"
    },
    "image_url": "https://s3-media4.fl.yelpcdn.com/bphoto/8F3v8lK3mmqcVPGk47Pk1A/o.jpg",
    "alias": "vietnamese",
    "title": "Vietnamese"
  },
  {
    "id": "A4fbwssaFFh60rNYjKGzag",
    "name": "Fabrika Fishtown",
    "review_count": 106,
    "rating": 4.5,
    "price_range": "$$$$",
    "location": {
      "city": "Philadelphia",
      "state": "PA"
    },
    "image_url": "https://s3-media3.fl.yelpcdn.com/bphoto/iArV_NtJIbqvUl_GFT1ukw/o.jpg",
    "alias": "dinnertheater",
    "title": "Dinner Theater"
  },
  {
    "id": "AFe9CAVwXMQe1LssZ-jJmQ",
    "name": "Giovani's Bar & Grill",
    "review_count": 266,
    "rating": 4.0,
    "price_range": "$",
    "location": {
      "city": "Philadelphia",
      "state": "PA"
    },
    "image_url": "https://s3-media3.fl.yelpcdn.com/bphoto/UH9TrxIHv5emL4GIvyoo4Q/o.jpg",
    "alias": "sportsbars",
    "title": "Sports Bars"
  },
  {
    "id": "y8gjlpJA89qDRCLC0JQaew",
    "name": "Giuseppe & Sons",
    "review_count": 459,
    "rating": 4.0,
    "price_range": "$$",
    "location": {
      "city": "Philadelphia",
      "state": "PA"
    },
    "image_url": "https://s3-media2.fl.yelpcdn.com/bphoto/Sl0A9huwOvCnUb26wcCp6Q/o.jpg",
    "alias": "italian",
    "title": "Italian"
  },
  {
    "id": "KiUa4mgYeMGXT6dwiDp04A",
    "name": "Frida Cantina",
    "review_count": 86,
    "rating": 4.5,
    "price_range": "$$",
    "location": {
      "city": "Philadelphia",
      "state": "PA"
    },
    "image_url": "https://s3-media2.fl.yelpcdn.com/bphoto/uD7BRGCKWvqI4qSM1Z9QtQ/o.jpg",
    "alias": "mexican",
    "title": "Mexican"
  },
  {
    "id": "Ktg3ahIxk0JIkJwXAqu2ew",
    "name": "Hikari Sushi",
    "review_count": 186,
    "rating": 4.5,
    "price_range": "$$",
    "location": {
      "city": "Philadelphia",
      "state": "PA"
    },
    "image_url": "https://s3-media4.fl.yelpcdn.com/bphoto/Wfm9_esVyaX2clAaV0MMvA/o.jpg",
    "alias": "japanese",
    "title": "Japanese"
  },
  {
    "id": "OoFCe8VbzzCr88SGC08omw",
    "name": "Buk Chon Korean Cuisine",
    "review_count": 310,
    "rating": 4.5,
    "price_range": "$$",
    "location": {
      "city": "Philadelphia",
      "state": "PA"
    },
    "image_url": "https://s3-media3.fl.yelpcdn.com/bphoto/JklN_orIQvqC4_nXu86CBw/o.jpg",
    "alias": "korean",
    "title": "Korean"
  },
  {
    "id": "FJl6LCHbqiM9mvSwDjFAjw",
    "name": "Kim's Restaurant",
    "review_count": 223,
    "rating": 4.0,
    "price_range": "$$",
    "location": {
      "city": "Philadelphia",
      "state": "PA"
    },
    "image_url": "https://s3-media1.fl.yelpcdn.com/bphoto/UbeQR5x7L-uLVVSnahXIqg/o.jpg",
    "alias": "korean",
    "title": "Korean"
  },
  {
    "id": "cbr2Db20L6P50CsxsX6c2A",
    "name": "Apricot Stone",
    "review_count": 357,
    "rating": 4.5,
    "price_range": "$$",
    "location": {
      "city": "Philadelphia",
      "state": "PA"
    },
    "image_url": "https://s3-media1.fl.yelpcdn.com/bphoto/eMUgSPMfN4XV1C68J55zSQ/o.jpg",
    "alias": "mediterranean",
    "title": "Mediterranean"
  },
  {
    "id": "gQCKrqkalAc--4cuW_C_Ow",
    "name": "Tacconelli's Pizzeria",
    "review_count": 412,
    "rating": 4.0,
    "price_range": "$$",
    "location": {
      "city": "Philadelphia",
      "state": "PA"
    },
    "image_url": "https://s3-media4.fl.yelpcdn.com/bphoto/njUzApyzvyeYiOUjAoEFSw/o.jpg",
    "alias": "pizza",
    "title": "Pizza"
  },
  {
    "id": "u3aN2A8Lo9odMCYjaphjLA",
    "name": "A Mano",
    "review_count": 251,
    "rating": 4.0,
    "price_range": "$$$",
    "location": {
      "city": "Philadelphia",
      "state": "PA"
    },
    "image_url": "https://s3-media3.fl.yelpcdn.com/bphoto/RamyAA4nU2a6liLbcaftlw/o.jpg",
    "alias": "italian",
    "title": "Italian"
  },
  {
    "id": "ZNWox30LIv7hV5k5YP8tCQ",
    "name": "Bar-Ly Chinatown",
    "review_count": 464,
    "rating": 4.0,
    "price_range": "$$",
    "location": {
      "city": "Philadelphia",
      "state": "PA"
    },
    "image_url": "https://s3-media4.fl.yelpcdn.com/bphoto/IrhYRvJmY3PKuNYvhfEv-g/o.jpg",
    "alias": "sportsbars",
    "title": "Sports Bars"
  },
  {
    "id": "o45O8DI0MJXYsHnoIkP0jg",
    "name": "D'jakarta Cafe",
    "review_count": 127,
    "rating": 4.5,
    "price_range": "$$",
    "location": {
      "city": "Philadelphia",
      "state": "PA"
    },
    "image_url": "https://s3-media2.fl.yelpcdn.com/bphoto/Gl5bVluV9jEv4csyNTNrow/o.jpg",
    "alias": "indonesian",
    "title": "Indonesian"
  },
  {
    "id": "vuE1iseFrgNPumUEfHIZZQ",
    "name": "JJ Thai Cuisine",
    "review_count": 454,
    "rating": 4.5,
    "price_range": "$$",
    "location": {
      "city": "Philadelphia",
      "state": "PA"
    },
    "image_url": "https://s3-media1.fl.yelpcdn.com/bphoto/doBAVKiLrnmgc4kupeignQ/o.jpg",
    "alias": "thai",
    "title": "Thai"
  },
  {
    "id": "trH0bWrq9kwLoLHbvlPKmw",
    "name": "Villekebabs and Platters",
    "review_count": 67,
    "rating": 5.0,
    "price_range": null,
    "location": {
      "city": "Philadelphia",
      "state": "PA"
    },
    "image_url": "https://s3-media1.fl.yelpcdn.com/bphoto/4jcYjn_wd1w3VR2E5LFKhA/o.jpg",
    "alias": "afghani",
    "title": "Afghan"
  },
  {
    "id": "oTTx4ObLjOWVCtGXU_8AUw",
    "name": "KPOT Korean BBQ & Hot Pot",
    "review_count": 192,
    "rating": 4.5,
    "price_range": "$$",
    "location": {
      "city": "Philadelphia",
      "state": "PA"
    },
    "image_url": "https://s3-media4.fl.yelpcdn.com/bphoto/zZt4tWEPKDpAtHwJRmgGNA/o.jpg",
    "alias": "korean",
    "title": "Korean"
  },
  {
    "id": "TwnzM8mJn_nT2PJf1x-9kQ",
    "name": "Cafe Lift",
    "review_count": 1342,
    "rating": 4.0,
    "price_range": "$$",
    "location": {
      "city": "Philadelphia",
      "state": "PA"
    },
    "image_url": "https://s3-media4.fl.yelpcdn.com/bphoto/Vk5VsU6OmE9JxQ1yfnc_ng/o.jpg",
    "alias": "newamerican",
    "title": "New American"
  },
  {
    "id": "eJaeTZlIdM3HWCq__Ve4Wg",
    "name": "Tria Cafe Rittenhouse",
    "review_count": 925,
    "rating": 4.5,
    "price_range": "$$$",
    "location": {
      "city": "Philadelphia",
      "state": "PA"
    },
    "image_url": "https://s3-media2.fl.yelpcdn.com/bphoto/EYXt74nJIJMKDXD6D1H9tQ/o.jpg",
    "alias": "wine_bars",
    "title": "Wine Bars"
  },
  {
    "id": "0S3TvsmbCeOZ9UitnpRd1A",
    "name": "Dim Sum House",
    "review_count": 562,
    "rating": 4.0,
    "price_range": "$$",
    "location": {
      "city": "Philadelphia",
      "state": "PA"
    },
    "image_url": "https://s3-media3.fl.yelpcdn.com/bphoto/HmH1DsEHpucbsPOtLHoasA/o.jpg",
    "alias": "szechuan",
    "title": "Szechuan"
  },
  {
    "id": "g2zwbLIqxtN9nGGuL43trg",
    "name": "Pizza Brain",
    "review_count": 610,
    "rating": 4.0,
    "price_range": "$$",
    "location": {
      "city": "Philadelphia",
      "state": "PA"
    },
    "image_url": "https://s3-media2.fl.yelpcdn.com/bphoto/l17FUflFfOcuB7w4gXiQdg/o.jpg",
    "alias": "pizza",
    "title": "Pizza"
  },
  {
    "id": "r4eDzodjjoxk79ydS7V67Q",
    "name": "1518 Bar & Grill",
    "review_count": 259,
    "rating": 4.0,
    "price_range": "$$",
    "location": {
      "city": "Philadelphia",
      "state": "PA"
    },
    "image_url": "https://s3-media2.fl.yelpcdn.com/bphoto/xzH1gAvDxX-4Pbw16ItRlw/o.jpg",
    "alias": "bars",
    "title": "Bars"
  },
  {
    "id": "1vPSY4EA-fTRIZYz1Ruzow",
    "name": "K'Far Cafe",
    "review_count": 553,
    "rating": 4.5,
    "price_range": "$$",
    "location": {
      "city": "Philadelphia",
      "state": "PA"
    },
    "image_url": "https://s3-media2.fl.yelpcdn.com/bphoto/GSgMWfmhi21KDTiwkmGFAA/o.jpg",
    "alias": "cafes",
    "title": "Cafes"
  },
  {
    "id": "zU5PPd9j4bYC_MepNSEDcA",
    "name": "Dim Sum House",
    "review_count": 516,
    "rating": 4.0,
    "price_range": "$$",
    "location": {
      "city": "Philadelphia",
      "state": "PA"
    },
    "image_url": "https://s3-media4.fl.yelpcdn.com/bphoto/A8qMUhJ8NwoUJrdASWUqnQ/o.jpg",
    "alias": "dimsum",
    "title": "Dim Sum"
  },
  {
    "id": "q4AxwoWQs6rk2nkWJuYZIA",
    "name": "Triangle Tavern",
    "review_count": 267,
    "rating": 4.0,
    "price_range": "$$",
    "location": {
      "city": "Philadelphia",
      "state": "PA"
    },
    "image_url": "https://s3-media4.fl.yelpcdn.com/bphoto/VMHeLynFbQ0cqbMciKorFw/o.jpg",
    "alias": "tradamerican",
    "title": "American"
  },
  {
    "id": "VJjFHQJ08SR_Pl7Bk4o2xQ",
    "name": "Helm",
    "review_count": 241,
    "rating": 4.5,
    "price_range": "$$$",
    "location": {
      "city": "Philadelphia",
      "state": "PA"
    },
    "image_url": "https://s3-media3.fl.yelpcdn.com/bphoto/lAJTYW6QvROGGo57_Iitqw/o.jpg",
    "alias": "newamerican",
    "title": "New American"
  },
  {
    "id": "-1B9pP_CrRBJYPICE5WbRA",
    "name": "Spice 28",
    "review_count": 869,
    "rating": 4.0,
    "price_range": "$$",
    "location": {
      "city": "Philadelphia",
      "state": "PA"
    },
    "image_url": "https://s3-media3.fl.yelpcdn.com/bphoto/-RDZN9oVwaPfUneBHDQeCg/o.jpg",
    "alias": "szechuan",
    "title": "Szechuan"
  },
  {
    "id": "5R3-eCIk4dRBtXo0A5MAzQ",
    "name": "A\u00f1ejo Philadelphia",
    "review_count": 235,
    "rating": 4.0,
    "price_range": "$$",
    "location": {
      "city": "Philadelphia",
      "state": "PA"
    },
    "image_url": "https://s3-media1.fl.yelpcdn.com/bphoto/6_L9-6r5Xty_sckVArdljA/o.jpg",
    "alias": "mexican",
    "title": "Mexican"
  },
  {
    "id": "uHtdM9fh6h4F0Ly3X3ez0Q",
    "name": "Oloroso",
    "review_count": 241,
    "rating": 4.0,
    "price_range": "$$",
    "location": {
      "city": "Philadelphia",
      "state": "PA"
    },
    "image_url": "https://s3-media3.fl.yelpcdn.com/bphoto/lFmbn7-7zx3blQLKaFH1RQ/o.jpg",
    "alias": "spanish",
    "title": "Spanish"
  },
  {
    "id": "bjPUhanWoinHi2kywvVzBA",
    "name": "Mercato BYOB",
    "review_count": 761,
    "rating": 4.0,
    "price_range": "$$$",
    "location": {
      "city": "Philadelphia",
      "state": "PA"
    },
    "image_url": "https://s3-media4.fl.yelpcdn.com/bphoto/KxiB3f8CMWq47B2cXHeX-w/o.jpg",
    "alias": "italian",
    "title": "Italian"
  },
  {
    "id": "QWqKTWQ2OiDgo3dzNkpung",
    "name": "Jong Ka Jib",
    "review_count": 380,
    "rating": 4.5,
    "price_range": "$$",
    "location": {
      "city": "Philadelphia",
      "state": "PA"
    },
    "image_url": "https://s3-media3.fl.yelpcdn.com/bphoto/Gw_og27_GqtcjH_pVlptXQ/o.jpg",
    "alias": "korean",
    "title": "Korean"
  },
  {
    "id": "UfNta35H6m-z2xN9XFI77g",
    "name": "House of Thai Cuisine",
    "review_count": 304,
    "rating": 4.5,
    "price_range": "$$",
    "location": {
      "city": "Philadelphia",
      "state": "PA"
    },
    "image_url": "https://s3-media2.fl.yelpcdn.com/bphoto/mz4pETk80PuRqknTmwf5Dg/o.jpg",
    "alias": "thai",
    "title": "Thai"
  },
  {
    "id": "qrgxVuRwcUOK_KFk4A20Pg",
    "name": "Amina",
    "review_count": 158,
    "rating": 4.0,
    "price_range": null,
    "location": {
      "city": "Philadelphia",
      "state": "PA"
    },
    "image_url": "https://s3-media1.fl.yelpcdn.com/bphoto/DiB-FtZtthVKquvc22reXA/o.jpg",
    "alias": "southern",
    "title": "Southern"
  },
  {
    "id": "D2OcZHMkznF5bbelwZ7TPw",
    "name": "Molly Malloy's",
    "review_count": 401,
    "rating": 4.0,
    "price_range": "$$",
    "location": {
      "city": "Philadelphia",
      "state": "PA"
    },
    "image_url": "https://s3-media2.fl.yelpcdn.com/bphoto/xBxgCsPat7tfYsZcBXGVIg/o.jpg",
    "alias": "gastropubs",
    "title": "Gastropubs"
  },
  {
    "id": "2pLIQ0RHSmUbF0eIRT0LYg",
    "name": "Vintage Wine Bar",
    "review_count": 440,
    "rating": 4.0,
    "price_range": "$$",
    "location": {
      "city": "Philadelphia",
      "state": "PA"
    },
    "image_url": "https://s3-media1.fl.yelpcdn.com/bphoto/kLCuf_gMM-3k6PYdQc4ffQ/o.jpg",
    "alias": "wine_bars",
    "title": "Wine Bars"
  },
  {
    "id": "4PyqPHAiFopyZZlLcLQuVg",
    "name": "D'Oliva evoo Pizza & Grill",
    "review_count": 125,
    "rating": 4.5,
    "price_range": null,
    "location": {
      "city": "Philadelphia",
      "state": "PA"
    },
    "image_url": "https://s3-media4.fl.yelpcdn.com/bphoto/itFNl2rFhdI-1nuM4iwrMA/o.jpg",
    "alias": "pizza",
    "title": "Pizza"
  },
  {
    "id": "Pl_9HzOa8uy_YOUxgonzGw",
    "name": "Los Gallos Mexican Taqueria",
    "review_count": 554,
    "rating": 4.5,
    "price_range": "$$",
    "location": {
      "city": "Philadelphia",
      "state": "PA"
    },
    "image_url": "https://s3-media3.fl.yelpcdn.com/bphoto/LGoZQ2_GaMz1xItiPlhWNg/o.jpg",
    "alias": "mexican",
    "title": "Mexican"
  },
  {
    "id": "_3NZVCWeyFZ1_vWqi2avjw",
    "name": "Nick's Old Original Roast Beef",
    "review_count": 295,
    "rating": 4.5,
    "price_range": "$",
    "location": {
      "city": "Philadelphia",
      "state": "PA"
    },
    "image_url": "https://s3-media2.fl.yelpcdn.com/bphoto/W3FIpLpVoA7AG1dX16T4bw/o.jpg",
    "alias": "divebars",
    "title": "Dive Bars"
  },
  {
    "id": "LO5yBY9uoowtq7FsaKPJXA",
    "name": "Kraftwork",
    "review_count": 580,
    "rating": 4.0,
    "price_range": "$$",
    "location": {
      "city": "Philadelphia",
      "state": "PA"
    },
    "image_url": "https://s3-media1.fl.yelpcdn.com/bphoto/sl9R8UpwRJANtOfmk9Cojw/o.jpg",
    "alias": "gastropubs",
    "title": "Gastropubs"
  },
  {
    "id": "S9IFCU4FKCqEriV1Rr2ZcA",
    "name": "Race Street Cafe",
    "review_count": 364,
    "rating": 4.0,
    "price_range": "$$",
    "location": {
      "city": "Philadelphia",
      "state": "PA"
    },
    "image_url": "https://s3-media3.fl.yelpcdn.com/bphoto/XWLU3GOjEDt0aWKqwjI54g/o.jpg",
    "alias": "bars",
    "title": "Bars"
  },
  {
    "id": "yeMbnYWLlWOTnv4F5emr_Q",
    "name": "Darling Jack's Tavern",
    "review_count": 68,
    "rating": 4.5,
    "price_range": null,
    "location": {
      "city": "Philadelphia",
      "state": "PA"
    },
    "image_url": "https://s3-media2.fl.yelpcdn.com/bphoto/MRtdygPAJOy0SdCJXgbbSw/o.jpg",
    "alias": "newamerican",
    "title": "New American"
  },
  {
    "id": "pgri9CUZXGy9hi6UMMQR6A",
    "name": "Louie Louie",
    "review_count": 418,
    "rating": 4.0,
    "price_range": "$$$",
    "location": {
      "city": "Philadelphia",
      "state": "PA"
    },
    "image_url": "https://s3-media2.fl.yelpcdn.com/bphoto/IfVl0yVvi8oVMD1_k91oPA/o.jpg",
    "alias": "newamerican",
    "title": "New American"
  },
  {
    "id": "gLpp7kjR9Zg6ypG2lRjAYg",
    "name": "Mccrossens Tavern",
    "review_count": 324,
    "rating": 4.0,
    "price_range": "$$",
    "location": {
      "city": "Philadelphia",
      "state": "PA"
    },
    "image_url": "https://s3-media1.fl.yelpcdn.com/bphoto/f1KSzNujTjlM8jMzPcOZHQ/o.jpg",
    "alias": "tradamerican",
    "title": "American"
  },
  {
    "id": "qQO7ErS_RAN4Vs1uX0L55Q",
    "name": "The Franklin Fountain",
    "review_count": 2222,
    "rating": 4.0,
    "price_range": "$$$",
    "location": {
      "city": "Philadelphia",
      "state": "PA"
    },
    "image_url": "https://s3-media2.fl.yelpcdn.com/bphoto/h5MLaYs0JIMfLKYg2DBBgA/o.jpg",
    "alias": "icecream",
    "title": "Ice Cream & Frozen Yogurt"
  },
  {
    "id": "Iw8uqNPxviwcgxtruAx_LA",
    "name": "Good Dog Bar",
    "review_count": 1406,
    "rating": 4.0,
    "price_range": "$$",
    "location": {
      "city": "Philadelphia",
      "state": "PA"
    },
    "image_url": "https://s3-media2.fl.yelpcdn.com/bphoto/zmQrtAs6TMkWLLRT45P91g/o.jpg",
    "alias": "pubs",
    "title": "Pubs"
  },
  {
    "id": "iUZEGx29miZObLd6_lt7Vg",
    "name": "Sabrina's Caf\u00e9",
    "review_count": 1974,
    "rating": 4.0,
    "price_range": "$$",
    "location": {
      "city": "Philadelphia",
      "state": "PA"
    },
    "image_url": "https://s3-media1.fl.yelpcdn.com/bphoto/gWsD8OF56JjJny5Og-idXw/o.jpg",
    "alias": "breakfast_brunch",
    "title": "Breakfast & Brunch"
  },
  {
    "id": "30cpm1uq6xcQCmN6JTrB8w",
    "name": "Luke's Lobster Rittenhouse",
    "review_count": 1222,
    "rating": 4.5,
    "price_range": "$$",
    "location": {
      "city": "Philadelphia",
      "state": "PA"
    },
    "image_url": "https://s3-media1.fl.yelpcdn.com/bphoto/Y5F9Z5T2Th-e_KTZ2ISSZg/o.jpg",
    "alias": "seafood",
    "title": "Seafood"
  },
  {
    "id": "0K4RwxdAcViifyU3Htzxww",
    "name": "Southwark Restaurant",
    "review_count": 245,
    "rating": 4.0,
    "price_range": "$$$",
    "location": {
      "city": "Philadelphia",
      "state": "PA"
    },
    "image_url": "https://s3-media2.fl.yelpcdn.com/bphoto/vRQ2fni8o-bN7flIJEdCJA/o.jpg",
    "alias": "newamerican",
    "title": "New American"
  },
  {
    "id": "iWy6Wft0MMO9Ud2wM93frg",
    "name": "The Sidecar Bar & Grille",
    "review_count": 738,
    "rating": 4.0,
    "price_range": "$$",
    "location": {
      "city": "Philadelphia",
      "state": "PA"
    },
    "image_url": "https://s3-media2.fl.yelpcdn.com/bphoto/cuIecyIowQ6rIVRdNzlSig/o.jpg",
    "alias": "bars",
    "title": "Bars"
  },
  {
    "id": "OddKlB5d2KQpIP2rJt89ow",
    "name": "White Yak",
    "review_count": 259,
    "rating": 4.5,
    "price_range": "$$",
    "location": {
      "city": "Philadelphia",
      "state": "PA"
    },
    "image_url": "https://s3-media2.fl.yelpcdn.com/bphoto/54G9qMTWRjJDzbZ-pjoFMQ/o.jpg",
    "alias": "himalayan",
    "title": "Himalayan/Nepalese"
  },
  {
    "id": "9Br4vm6bS_1uOH0dIYYIZg",
    "name": "Grandmas Philly",
    "review_count": 217,
    "rating": 4.5,
    "price_range": "$$",
    "location": {
      "city": "Philadelphia",
      "state": "PA"
    },
    "image_url": "https://s3-media2.fl.yelpcdn.com/bphoto/ACRpTKnhrlCZWhF4E1gMiA/o.jpg",
    "alias": "thai",
    "title": "Thai"
  },
  {
    "id": "DytKODMqcvQ7MWA0NN2uNw",
    "name": "Lloyd Whiskey Bar",
    "review_count": 222,
    "rating": 4.0,
    "price_range": "$$",
    "location": {
      "city": "Philadelphia",
      "state": "PA"
    },
    "image_url": "https://s3-media1.fl.yelpcdn.com/bphoto/nvQBkS3YuPa4NCnIZnd0fw/o.jpg",
    "alias": "newamerican",
    "title": "New American"
  },
  {
    "id": "CpV8X8DHk2VqWo11CEde-w",
    "name": "Paprica Modern Mediterranean Grill",
    "review_count": 240,
    "rating": 4.5,
    "price_range": "$$",
    "location": {
      "city": "Philadelphia",
      "state": "PA"
    },
    "image_url": "https://s3-media2.fl.yelpcdn.com/bphoto/R5o0anWBuJ2vPeq_smyhaw/o.jpg",
    "alias": "mediterranean",
    "title": "Mediterranean"
  },
  {
    "id": "-mIlmp5l4hKlp1tvHRdvTg",
    "name": "Sonny's Famous Steaks",
    "review_count": 1947,
    "rating": 4.0,
    "price_range": "$$",
    "location": {
      "city": "Philadelphia",
      "state": "PA"
    },
    "image_url": "https://s3-media2.fl.yelpcdn.com/bphoto/xtspCMHqQ4e0HDJrTIRQlA/o.jpg",
    "alias": "cheesesteaks",
    "title": "Cheesesteaks"
  },
  {
    "id": "0-JRAY0LpBazDuA9761U5w",
    "name": "Pizzeria Vetri",
    "review_count": 399,
    "rating": 4.0,
    "price_range": "$$",
    "location": {
      "city": "Philadelphia",
      "state": "PA"
    },
    "image_url": "https://s3-media2.fl.yelpcdn.com/bphoto/wj_VugOHZ2mu2n1OBW1BLQ/o.jpg",
    "alias": "pizza",
    "title": "Pizza"
  },
  {
    "id": "hGb-yA-llJ7hnw9NyzE52A",
    "name": "Crunchik'n",
    "review_count": 229,
    "rating": 4.5,
    "price_range": "$$",
    "location": {
      "city": "Philadelphia",
      "state": "PA"
    },
    "image_url": "https://s3-media1.fl.yelpcdn.com/bphoto/r2FgSh4eFsyHmAtxanVd_g/o.jpg",
    "alias": "korean",
    "title": "Korean"
  },
  {
    "id": "9ANZAxxwp-UAxqUo3KF9gg",
    "name": "Hiroki",
    "review_count": 165,
    "rating": 4.0,
    "price_range": "$$$$",
    "location": {
      "city": "Philadelphia",
      "state": "PA"
    },
    "image_url": "https://s3-media2.fl.yelpcdn.com/bphoto/vgOhZVO95xOxljl0meFddg/o.jpg",
    "alias": "japanese",
    "title": "Japanese"
  },
  {
    "id": "AjQGanUkM-SFa7MxwTfMRw",
    "name": "Elwood",
    "review_count": 58,
    "rating": 5.0,
    "price_range": null,
    "location": {
      "city": "Philadelphia",
      "state": "PA"
    },
    "image_url": "https://s3-media4.fl.yelpcdn.com/bphoto/svSrue9Uf18h-1450dfIPA/o.jpg",
    "alias": "newamerican",
    "title": "New American"
  },
  {
    "id": "2gDkEvBPkl-ATS_eqaMvxQ",
    "name": "La Nonna",
    "review_count": 193,
    "rating": 4.5,
    "price_range": "$$",
    "location": {
      "city": "Philadelphia",
      "state": "PA"
    },
    "image_url": "https://s3-media2.fl.yelpcdn.com/bphoto/0vaK8x0lrBsxo_Pig85dRg/o.jpg",
    "alias": "italian",
    "title": "Italian"
  },
  {
    "id": "ZF0tt7hn6WK3-aNWgtLcFA",
    "name": "Eastern State Penitentiary",
    "review_count": 906,
    "rating": 4.5,
    "price_range": null,
    "location": {
      "city": "Philadelphia",
      "state": "PA"
    },
    "image_url": "https://s3-media3.fl.yelpcdn.com/bphoto/E9gRFiZBhk-oHRgrPcD9KA/o.jpg",
    "alias": "landmarks",
    "title": "Landmarks & Historical Buildings"
  },
  {
    "id": "cVV8GWVIe9BwyCOKwrFgPA",
    "name": "Castellino's",
    "review_count": 83,
    "rating": 5.0,
    "price_range": "$",
    "location": {
      "city": "Philadelphia",
      "state": "PA"
    },
    "image_url": "https://s3-media2.fl.yelpcdn.com/bphoto/t2U-aC6NlYuU20T5pZXbkg/o.jpg",
    "alias": "italian",
    "title": "Italian"
  },
  {
    "id": "wjGV_sRxlhLKgvOBA8PhYQ",
    "name": "Malbec Argentine Steakhouse",
    "review_count": 247,
    "rating": 4.0,
    "price_range": "$$$",
    "location": {
      "city": "Philadelphia",
      "state": "PA"
    },
    "image_url": "https://s3-media3.fl.yelpcdn.com/bphoto/lAfZ90ayeaAoDh9sLmWDLA/o.jpg",
    "alias": "argentine",
    "title": "Argentine"
  },
  {
    "id": "bIGFd99r3iUNB0xshlZ5Sw",
    "name": "Pumpkin",
    "review_count": 458,
    "rating": 4.0,
    "price_range": "$$$",
    "location": {
      "city": "Philadelphia",
      "state": "PA"
    },
    "image_url": "https://s3-media3.fl.yelpcdn.com/bphoto/XhBBMij-QZwaKgA-Fl7X3w/o.jpg",
    "alias": "newamerican",
    "title": "New American"
  },
  {
    "id": "6_LnAQQ0-mml8YgpfRjGuA",
    "name": "Saad's Halal Restaurant",
    "review_count": 785,
    "rating": 4.5,
    "price_range": "$",
    "location": {
      "city": "Philadelphia",
      "state": "PA"
    },
    "image_url": "https://s3-media3.fl.yelpcdn.com/bphoto/cBqSQKFBOBWqQjXKTOEE8w/o.jpg",
    "alias": "halal",
    "title": "Halal"
  },
  {
    "id": "-5Rah4ZvWsDu4oilUZxhtw",
    "name": "World Cafe Live",
    "review_count": 387,
    "rating": 4.0,
    "price_range": "$$",
    "location": {
      "city": "Philadelphia",
      "state": "PA"
    },
    "image_url": "https://s3-media1.fl.yelpcdn.com/bphoto/Z0sH9c6JfSM4jhHqIp2TZw/o.jpg",
    "alias": "musicvenues",
    "title": "Music Venues"
  },
  {
    "id": "l8VedGQFMLtTz2zRmpTlxA",
    "name": "Hardena/Waroeng Surabaya Restaurant",
    "review_count": 419,
    "rating": 4.5,
    "price_range": "$$",
    "location": {
      "city": "Philadelphia",
      "state": "PA"
    },
    "image_url": "https://s3-media1.fl.yelpcdn.com/bphoto/nmDYcorE1qHMZeesOzhZsw/o.jpg",
    "alias": "indonesian",
    "title": "Indonesian"
  },
  {
    "id": "-Ti5pwj6mA99khsxxur8aQ",
    "name": "Ambrosia Ristorante BYOB",
    "review_count": 246,
    "rating": 4.5,
    "price_range": null,
    "location": {
      "city": "Philadelphia",
      "state": "PA"
    },
    "image_url": "https://s3-media4.fl.yelpcdn.com/bphoto/fRw-hm3ONI6Cc2IUvv02Vw/o.jpg",
    "alias": "italian",
    "title": "Italian"
  },
  {
    "id": "geFqswYwGZ_XmuSJy3DEvw",
    "name": "OG Pizza",
    "review_count": 181,
    "rating": 4.0,
    "price_range": "$",
    "location": {
      "city": "Philadelphia",
      "state": "PA"
    },
    "image_url": "https://s3-media3.fl.yelpcdn.com/bphoto/9Amye1QJUlDSIn9kaOXLSg/o.jpg",
    "alias": "pizza",
    "title": "Pizza"
  },
  {
    "id": "NgUst1ex3M2ibDzSb6Xkaw",
    "name": "Emmy Squared Pizza - Queen Village",
    "review_count": 257,
    "rating": 4.0,
    "price_range": "$$",
    "location": {
      "city": "Philadelphia",
      "state": "PA"
    },
    "image_url": "https://s3-media3.fl.yelpcdn.com/bphoto/o5niITwNJot0yL3VyiyjbQ/o.jpg",
    "alias": "pizza",
    "title": "Pizza"
  },
  {
    "id": "N_6lpdW1jhAx1EVcHJPK5g",
    "name": "Franky Bradley's",
    "review_count": 231,
    "rating": 4.0,
    "price_range": "$$",
    "location": {
      "city": "Philadelphia",
      "state": "PA"
    },
    "image_url": "https://s3-media4.fl.yelpcdn.com/bphoto/KlPTlpNTCFcZT-DTLY1_oQ/o.jpg",
    "alias": "bbq",
    "title": "Barbeque"
  },
  {
    "id": "suu00nBOfDsTOjSm_WtV8A",
    "name": "Malooga",
    "review_count": 118,
    "rating": 4.5,
    "price_range": "$$",
    "location": {
      "city": "Philadelphia",
      "state": "PA"
    },
    "image_url": "https://s3-media1.fl.yelpcdn.com/bphoto/cYFZK-7Znt3AYnTRp3HzVQ/o.jpg",
    "alias": "arabian",
    "title": "Arabic"
  },
  {
    "id": "j6usntbtSzFyuwx4n2mn1g",
    "name": "Las Bugambilias",
    "review_count": 461,
    "rating": 4.0,
    "price_range": "$$",
    "location": {
      "city": "Philadelphia",
      "state": "PA"
    },
    "image_url": "https://s3-media2.fl.yelpcdn.com/bphoto/33e263btFB_u2XyTgUcqQg/o.jpg",
    "alias": "mexican",
    "title": "Mexican"
  },
  {
    "id": "Gw7UW0E2BguzL9suQnwDeg",
    "name": "SPOT Gourmet Burgers",
    "review_count": 325,
    "rating": 4.5,
    "price_range": "$$",
    "location": {
      "city": "Philadelphia",
      "state": "PA"
    },
    "image_url": "https://s3-media1.fl.yelpcdn.com/bphoto/zsvj132TbaG82fBpDGFYXA/o.jpg",
    "alias": "burgers",
    "title": "Burgers"
  },
  {
    "id": "4rG4tJF2EC2CfYvBu_uqpQ",
    "name": "Cry Baby Pasta",
    "review_count": 257,
    "rating": 4.0,
    "price_range": "$$",
    "location": {
      "city": "Philadelphia",
      "state": "PA"
    },
    "image_url": "https://s3-media2.fl.yelpcdn.com/bphoto/EtA8pXg6qZ5tcXPpnQVC3Q/o.jpg",
    "alias": "italian",
    "title": "Italian"
  },
  {
    "id": "Ep_jh1Pt4Ggyla21f-BQcQ",
    "name": "New Leaf 2 Chinese & Japanese Cuisine",
    "review_count": 169,
    "rating": 4.0,
    "price_range": "$$",
    "location": {
      "city": "Philadelphia",
      "state": "PA"
    },
    "image_url": "https://s3-media2.fl.yelpcdn.com/bphoto/WwNo_cvEzBp0GBzLSbnuBw/o.jpg",
    "alias": "chinese",
    "title": "Chinese"
  },
  {
    "id": "JVDHxMnKjif8XdXVFWiClg",
    "name": "Dizengoff",
    "review_count": 774,
    "rating": 4.5,
    "price_range": "$$",
    "location": {
      "city": "Philadelphia",
      "state": "PA"
    },
    "image_url": "https://s3-media4.fl.yelpcdn.com/bphoto/c8F9TAemLafOp9daCUw5ig/o.jpg",
    "alias": "mideastern",
    "title": "Middle Eastern"
  },
  {
    "id": "BtxUZn4d7yxsHwdlRq1dkw",
    "name": "Mount Airy Tap Room",
    "review_count": 77,
    "rating": 4.5,
    "price_range": "$$",
    "location": {
      "city": "Philadelphia",
      "state": "PA"
    },
    "image_url": "https://s3-media4.fl.yelpcdn.com/bphoto/7AtBqreq0kRFfg3LzZUe6w/o.jpg",
    "alias": "beerbar",
    "title": "Beer Bar"
  },
  {
    "id": "lWedWkinrM5j13pyimbpbA",
    "name": "Miles Table",
    "review_count": 546,
    "rating": 4.5,
    "price_range": "$$",
    "location": {
      "city": "Philadelphia",
      "state": "PA"
    },
    "image_url": "https://s3-media3.fl.yelpcdn.com/bphoto/XdfhHTRfumd2jpFPVcyRxA/o.jpg",
    "alias": "tradamerican",
    "title": "American"
  },
  {
    "id": "2VgdPHszJdhOxzVFBbUPAA",
    "name": "Down North Pizza",
    "review_count": 132,
    "rating": 4.5,
    "price_range": "$$",
    "location": {
      "city": "Philadelphia",
      "state": "PA"
    },
    "image_url": "https://s3-media2.fl.yelpcdn.com/bphoto/5ItMukPq6EmkKrga1AuWzw/o.jpg",
    "alias": "pizza",
    "title": "Pizza"
  },
  {
    "id": "Zqd_DHAtrdzRJ8u3zwrvEA",
    "name": "Hershel's East Side Deli",
    "review_count": 843,
    "rating": 4.5,
    "price_range": "$$",
    "location": {
      "city": "Philadelphia",
      "state": "PA"
    },
    "image_url": "https://s3-media4.fl.yelpcdn.com/bphoto/R7FnblxDhsyBeMQBXjQX7w/o.jpg",
    "alias": "delis",
    "title": "Delis"
  },
  {
    "id": "gXiWHYBuPLWWXZJPOP1uKw",
    "name": "Pretty Girls Cook",
    "review_count": 207,
    "rating": 4.0,
    "price_range": "$$",
    "location": {
      "city": "Philadelphia",
      "state": "PA"
    },
    "image_url": "https://s3-media1.fl.yelpcdn.com/bphoto/QOH8n9TzNjiZI2INBwm5gw/o.jpg",
    "alias": "tradamerican",
    "title": "American"
  },
  {
    "id": "vF_QwGltBpVesMMGclzB9Q",
    "name": "Pizzeria Stella",
    "review_count": 674,
    "rating": 4.0,
    "price_range": "$$",
    "location": {
      "city": "Philadelphia",
      "state": "PA"
    },
    "image_url": "https://s3-media1.fl.yelpcdn.com/bphoto/Ky1DYv2KfmTCnJnHxcbouQ/o.jpg",
    "alias": "pizza",
    "title": "Pizza"
  },
  {
    "id": "qBwOLby0sOJd3QG1o76W2w",
    "name": "Veda - Modern Indian Bistro",
    "review_count": 559,
    "rating": 4.0,
    "price_range": "$$",
    "location": {
      "city": "Philadelphia",
      "state": "PA"
    },
    "image_url": "https://s3-media4.fl.yelpcdn.com/bphoto/hCps3Ud6GPEydcxFCKmcGA/o.jpg",
    "alias": "indpak",
    "title": "Indian"
  },
  {
    "id": "1FCxJuEH_3tmxUDVPv1qfw",
    "name": "Poe's Sandwich Joint",
    "review_count": 163,
    "rating": 4.0,
    "price_range": "$$",
    "location": {
      "city": "Philadelphia",
      "state": "PA"
    },
    "image_url": "https://s3-media1.fl.yelpcdn.com/bphoto/pJLECId6tKGcwpsLPNk6ug/o.jpg",
    "alias": "sandwiches",
    "title": "Sandwiches"
  },
  {
    "id": "8kUh6TROemLfbVR_ewVVLg",
    "name": "Nam Phuong",
    "review_count": 800,
    "rating": 4.0,
    "price_range": "$$",
    "location": {
      "city": "Philadelphia",
      "state": "PA"
    },
    "image_url": "https://s3-media4.fl.yelpcdn.com/bphoto/gsTsoKlJgjaAAl8rRJ2ITA/o.jpg",
    "alias": "vietnamese",
    "title": "Vietnamese"
  },
  {
    "id": "8vQ7sCyJ1xE19EF7ka7n1w",
    "name": "Jomon Japanese BBQ & Hot Pot",
    "review_count": 300,
    "rating": 4.0,
    "price_range": "$$$",
    "location": {
      "city": "Philadelphia",
      "state": "PA"
    },
    "image_url": "https://s3-media2.fl.yelpcdn.com/bphoto/ILfCeLp87YClrPWk0QHdsQ/o.jpg",
    "alias": "bbq",
    "title": "Barbeque"
  },
  {
    "id": "2qVZiMB22YPC2HCM62Gnbw",
    "name": "Scarpetta Philadelphia",
    "review_count": 250,
    "rating": 4.0,
    "price_range": "$$$",
    "location": {
      "city": "Philadelphia",
      "state": "PA"
    },
    "image_url": "https://s3-media2.fl.yelpcdn.com/bphoto/G5lGck-lOxXJKBw2IPgqHw/o.jpg",
    "alias": "italian",
    "title": "Italian"
  },
  {
    "id": "oZzN706lKoL4faaTK739xA",
    "name": "Restaurant Ambra",
    "review_count": 67,
    "rating": 4.5,
    "price_range": "$$$$",
    "location": {
      "city": "Philadelphia",
      "state": "PA"
    },
    "image_url": "https://s3-media1.fl.yelpcdn.com/bphoto/v2u-YvK0mg8mEMUbbAfvvQ/o.jpg",
    "alias": "italian",
    "title": "Italian"
  },
  {
    "id": "3f-acmwXPLnVd2UKfnk1xg",
    "name": "For Pete's Sake",
    "review_count": 207,
    "rating": 4.0,
    "price_range": "$$",
    "location": {
      "city": "Philadelphia",
      "state": "PA"
    },
    "image_url": "https://s3-media2.fl.yelpcdn.com/bphoto/RvIFpXgbyLrPaRyrKCdW-Q/o.jpg",
    "alias": "tradamerican",
    "title": "American"
  },
  {
    "id": "ueAkLzWFFTzQkq3jzyBlnA",
    "name": "Pho Xe Lua Viet Thai Restaurant",
    "review_count": 751,
    "rating": 4.0,
    "price_range": "$$",
    "location": {
      "city": "Philadelphia",
      "state": "PA"
    },
    "image_url": "https://s3-media2.fl.yelpcdn.com/bphoto/ivW34gmKN-HoLUjDqGGn_w/o.jpg",
    "alias": "vietnamese",
    "title": "Vietnamese"
  },
  {
    "id": "0OsR9lO16jxa0xWUY57s9g",
    "name": "Koto Sushi",
    "review_count": 312,
    "rating": 4.5,
    "price_range": "$$",
    "location": {
      "city": "Philadelphia",
      "state": "PA"
    },
    "image_url": "https://s3-media2.fl.yelpcdn.com/bphoto/aMBjpp-0ffSwEouXab0j8Q/o.jpg",
    "alias": "japanese",
    "title": "Japanese"
  },
  {
    "id": "MMRRS6YhVRx_iN5-JhMRYg",
    "name": "Han Dynasty",
    "review_count": 856,
    "rating": 4.0,
    "price_range": "$$",
    "location": {
      "city": "Philadelphia",
      "state": "PA"
    },
    "image_url": "https://s3-media4.fl.yelpcdn.com/bphoto/oYeWQdV_62YJbBeIhMMTNA/o.jpg",
    "alias": "szechuan",
    "title": "Szechuan"
  },
  {
    "id": "BX3LLonrLLLfVX-tNrE7yA",
    "name": "Cafe Nhan",
    "review_count": 208,
    "rating": 4.5,
    "price_range": "$$",
    "location": {
      "city": "Philadelphia",
      "state": "PA"
    },
    "image_url": "https://s3-media3.fl.yelpcdn.com/bphoto/VrVUNbhF2EY1sh6gUkdxRw/o.jpg",
    "alias": "vietnamese",
    "title": "Vietnamese"
  },
  {
    "id": "VC7VTddnZmY6RQoLQd_49A",
    "name": "La Locanda Del Ghiottone",
    "review_count": 280,
    "rating": 4.0,
    "price_range": "$$",
    "location": {
      "city": "Philadelphia",
      "state": "PA"
    },
    "image_url": "https://s3-media4.fl.yelpcdn.com/bphoto/jlgLbJIkiZwKx-reTCfyrw/o.jpg",
    "alias": "italian",
    "title": "Italian"
  },
  {
    "id": "U30ggGzFpXvc2NZYwOW3qg",
    "name": "Mood Cafe",
    "review_count": 511,
    "rating": 4.5,
    "price_range": "$",
    "location": {
      "city": "Philadelphia",
      "state": "PA"
    },
    "image_url": "https://s3-media1.fl.yelpcdn.com/bphoto/-nokYghAgMGsxYpD6fiAsA/o.jpg",
    "alias": "cafes",
    "title": "Cafes"
  },
  {
    "id": "2-tG52f0k7V1Vin-4GWn6g",
    "name": "Her Place",
    "review_count": 48,
    "rating": 4.5,
    "price_range": null,
    "location": {
      "city": "Philadelphia",
      "state": "PA"
    },
    "image_url": "https://s3-media4.fl.yelpcdn.com/bphoto/tOSNqajX1HTlkkUjAiN60g/o.jpg",
    "alias": "french",
    "title": "French"
  },
  {
    "id": "paNYNJ-VFDgwLY201IrXCQ",
    "name": "Sakana Omakas\u00e8 Sushi",
    "review_count": 190,
    "rating": 4.5,
    "price_range": "$$$$",
    "location": {
      "city": "Philadelphia",
      "state": "PA"
    },
    "image_url": "https://s3-media2.fl.yelpcdn.com/bphoto/B100JVVOkAGcM8nPjriAfA/o.jpg",
    "alias": "japanese",
    "title": "Japanese"
  },
  {
    "id": "BtXXYIQosyO8SbO718tXVQ",
    "name": "Caf\u00e9 Carmela",
    "review_count": 227,
    "rating": 4.5,
    "price_range": "$$",
    "location": {
      "city": "Philadelphia",
      "state": "PA"
    },
    "image_url": "https://s3-media3.fl.yelpcdn.com/bphoto/J9ImEPzalr-7OgriGb46Zg/o.jpg",
    "alias": "italian",
    "title": "Italian"
  },
  {
    "id": "HUVLNeBs32cInBZVFS90RA",
    "name": "Bardot Cafe",
    "review_count": 163,
    "rating": 4.5,
    "price_range": "$$",
    "location": {
      "city": "Philadelphia",
      "state": "PA"
    },
    "image_url": "https://s3-media2.fl.yelpcdn.com/bphoto/8vR77XStq8CqkSTK6tAutg/o.jpg",
    "alias": "cocktailbars",
    "title": "Cocktail Bars"
  },
  {
    "id": "2LokHe7GtKZD9Q6w0dRe_A",
    "name": "Queen & Rook Game Cafe",
    "review_count": 100,
    "rating": 4.5,
    "price_range": null,
    "location": {
      "city": "Philadelphia",
      "state": "PA"
    },
    "image_url": "https://s3-media2.fl.yelpcdn.com/bphoto/u-rUWMGJjMGv3YksXAeEJg/o.jpg",
    "alias": "vegetarian",
    "title": "Vegetarian"
  },
  {
    "id": "9kFMEa74Y79PKFGVO7dIPQ",
    "name": "Vista Peru",
    "review_count": 240,
    "rating": 4.0,
    "price_range": "$$",
    "location": {
      "city": "Philadelphia",
      "state": "PA"
    },
    "image_url": "https://s3-media1.fl.yelpcdn.com/bphoto/StsWNBD0CHu511RoTfKJwA/o.jpg",
    "alias": "peruvian",
    "title": "Peruvian"
  },
  {
    "id": "zRjUMHQJ5gAmFhcXZtLacA",
    "name": "Vietnam Restaurant",
    "review_count": 440,
    "rating": 4.0,
    "price_range": "$$",
    "location": {
      "city": "Philadelphia",
      "state": "PA"
    },
    "image_url": "https://s3-media2.fl.yelpcdn.com/bphoto/au9fDL5JK2b2BbCMMQ6exg/o.jpg",
    "alias": "vietnamese",
    "title": "Vietnamese"
  },
  {
    "id": "jUOhse36Yw56KXxGmva2Ug",
    "name": "Moonshine Philly",
    "review_count": 253,
    "rating": 4.0,
    "price_range": "$$",
    "location": {
      "city": "Philadelphia",
      "state": "PA"
    },
    "image_url": "https://s3-media3.fl.yelpcdn.com/bphoto/oRaj0hLFxl9zwRlZD-an4w/o.jpg",
    "alias": "gastropubs",
    "title": "Gastropubs"
  },
  {
    "id": "oyA87-Q_vqnmxVOn_auJQQ",
    "name": "Spice C",
    "review_count": 523,
    "rating": 4.0,
    "price_range": "$$",
    "location": {
      "city": "Philadelphia",
      "state": "PA"
    },
    "image_url": "https://s3-media3.fl.yelpcdn.com/bphoto/uZ1bTDNPvvsFA9jCDAgGDw/o.jpg",
    "alias": "chinese",
    "title": "Chinese"
  },
  {
    "id": "UaDnEIiRNCyLvrQWE4g0sg",
    "name": "Square Pie",
    "review_count": 167,
    "rating": 4.5,
    "price_range": "$$",
    "location": {
      "city": "Philadelphia",
      "state": "PA"
    },
    "image_url": "https://s3-media3.fl.yelpcdn.com/bphoto/zowH7kmpJ8LxOL7OAEPgvA/o.jpg",
    "alias": "pizza",
    "title": "Pizza"
  },
  {
    "id": "kfpwO_cdVQdTh2_oMDZ51Q",
    "name": "American Sardine Bar",
    "review_count": 377,
    "rating": 4.0,
    "price_range": "$$",
    "location": {
      "city": "Philadelphia",
      "state": "PA"
    },
    "image_url": "https://s3-media3.fl.yelpcdn.com/bphoto/fPdmePjCzSJV_0detgupCw/o.jpg",
    "alias": "bars",
    "title": "Bars"
  },
  {
    "id": "73UjNbSoQjQAOS45rcihFg",
    "name": "Cantina Dos Segundos",
    "review_count": 946,
    "rating": 4.0,
    "price_range": "$$",
    "location": {
      "city": "Philadelphia",
      "state": "PA"
    },
    "image_url": "https://s3-media1.fl.yelpcdn.com/bphoto/o6dZEM7PWd6ise02xV23JA/o.jpg",
    "alias": "mexican",
    "title": "Mexican"
  },
  {
    "id": "nzMsAREnsFlsCHsBUwL2SQ",
    "name": "Ho Sai Gai Restaurant",
    "review_count": 232,
    "rating": 4.0,
    "price_range": "$$",
    "location": {
      "city": "Philadelphia",
      "state": "PA"
    },
    "image_url": "https://s3-media3.fl.yelpcdn.com/bphoto/ldI3t8UVpXnqfgTPSscVkQ/o.jpg",
    "alias": "chinese",
    "title": "Chinese"
  },
  {
    "id": "YS18M5ox3x0tK6uulfydrw",
    "name": "ZIG ZAG BBQ",
    "review_count": 40,
    "rating": 5.0,
    "price_range": null,
    "location": {
      "city": "Philadelphia",
      "state": "PA"
    },
    "image_url": "https://s3-media2.fl.yelpcdn.com/bphoto/4n7arv6bBI4MQ3LKoQQYRw/o.jpg",
    "alias": "bbq",
    "title": "Barbeque"
  },
  {
    "id": "9Kx2DQuMRUw2Dk2grDsGHQ",
    "name": "Corey\u2019s Crafty Vietnamese Cuisine",
    "review_count": 62,
    "rating": 5.0,
    "price_range": null,
    "location": {
      "city": "Philadelphia",
      "state": "PA"
    },
    "image_url": "https://s3-media2.fl.yelpcdn.com/bphoto/uiuvPQcRjaeEy-YYKhvIYA/o.jpg",
    "alias": "vietnamese",
    "title": "Vietnamese"
  },
  {
    "id": "_FCULbsTuWOGGLLxrtJCpQ",
    "name": "Two Robbers Fishtown",
    "review_count": 44,
    "rating": 4.5,
    "price_range": null,
    "location": {
      "city": "Philadelphia",
      "state": "PA"
    },
    "image_url": "https://s3-media4.fl.yelpcdn.com/bphoto/M0-nliltCrPnd46qDxcAPw/o.jpg",
    "alias": "burgers",
    "title": "Burgers"
  },
  {
    "id": "jOaJ4PFGhGiM8fhuYcYFRg",
    "name": "Little Sicily 2",
    "review_count": 304,
    "rating": 4.5,
    "price_range": "$$",
    "location": {
      "city": "Philadelphia",
      "state": "PA"
    },
    "image_url": "https://s3-media2.fl.yelpcdn.com/bphoto/hngCgeY0kq60eclCjrWraA/o.jpg",
    "alias": "pizza",
    "title": "Pizza"
  },
  {
    "id": "kL98j83h3QFUoSBBevCHOw",
    "name": "Taproom On 19th",
    "review_count": 199,
    "rating": 4.0,
    "price_range": "$$",
    "location": {
      "city": "Philadelphia",
      "state": "PA"
    },
    "image_url": "https://s3-media3.fl.yelpcdn.com/bphoto/nvoyWrKAvoxjpAJarlW13g/o.jpg",
    "alias": "newamerican",
    "title": "New American"
  },
  {
    "id": "6CpCnFzpyOV4ymhNP1AOGw",
    "name": "Tamalex Restaurant",
    "review_count": 175,
    "rating": 4.5,
    "price_range": "$$",
    "location": {
      "city": "Philadelphia",
      "state": "PA"
    },
    "image_url": "https://s3-media1.fl.yelpcdn.com/bphoto/xQKT9UCTmnYv1lv2DnYhwA/o.jpg",
    "alias": "mexican",
    "title": "Mexican"
  },
  {
    "id": "R0JUjyjGEzUlY3auVhY_tg",
    "name": "North Bowl",
    "review_count": 521,
    "rating": 4.0,
    "price_range": "$$",
    "location": {
      "city": "Philadelphia",
      "state": "PA"
    },
    "image_url": "https://s3-media3.fl.yelpcdn.com/bphoto/q4WNGcV-p2aDd0awFaBkHg/o.jpg",
    "alias": "bowling",
    "title": "Bowling"
  },
  {
    "id": "SzV7Gwiql507h6d0BgT_7g",
    "name": "Ginos Pizza Cafe",
    "review_count": 86,
    "rating": 4.5,
    "price_range": "$$",
    "location": {
      "city": "Philadelphia",
      "state": "PA"
    },
    "image_url": "https://s3-media3.fl.yelpcdn.com/bphoto/tYCWnPvpw5HGvqQC2gcleg/o.jpg",
    "alias": "pizza",
    "title": "Pizza"
  },
  {
    "id": "OAWa1WML2V1ZLJGD6V3nBQ",
    "name": "Middle Child",
    "review_count": 573,
    "rating": 4.5,
    "price_range": "$$",
    "location": {
      "city": "Philadelphia",
      "state": "PA"
    },
    "image_url": "https://s3-media3.fl.yelpcdn.com/bphoto/fvu9_l8cJSOen2bhskBumQ/o.jpg",
    "alias": "breakfast_brunch",
    "title": "Breakfast & Brunch"
  },
  {
    "id": "EzjysPg2-lVX1E0ibStUXw",
    "name": "Ekta Indian Cuisine",
    "review_count": 471,
    "rating": 4.5,
    "price_range": "$$",
    "location": {
      "city": "Philadelphia",
      "state": "PA"
    },
    "image_url": "https://s3-media1.fl.yelpcdn.com/bphoto/PVZkY4llbKPGhMH1FmzVSw/o.jpg",
    "alias": "indpak",
    "title": "Indian"
  },
  {
    "id": "7z16CBc74GhbyqalwZrJUQ",
    "name": "Ting Wong Restaurant",
    "review_count": 483,
    "rating": 4.0,
    "price_range": "$$",
    "location": {
      "city": "Philadelphia",
      "state": "PA"
    },
    "image_url": "https://s3-media3.fl.yelpcdn.com/bphoto/wkYeHjQH1dkLoJTs5aOf_A/o.jpg",
    "alias": "chinese",
    "title": "Chinese"
  },
  {
    "id": "qY-BUQY-SFBaSrFHowF3nA",
    "name": "Nine Ting",
    "review_count": 1280,
    "rating": 4.0,
    "price_range": "$$$",
    "location": {
      "city": "Philadelphia",
      "state": "PA"
    },
    "image_url": "https://s3-media4.fl.yelpcdn.com/bphoto/98CGqFdxCV7-iIWFgqpG6w/o.jpg",
    "alias": "korean",
    "title": "Korean"
  },
  {
    "id": "AlxnbBd2JNkozNvI0OvRLQ",
    "name": "Murph's Bar",
    "review_count": 415,
    "rating": 4.5,
    "price_range": "$$",
    "location": {
      "city": "Philadelphia",
      "state": "PA"
    },
    "image_url": "https://s3-media2.fl.yelpcdn.com/bphoto/rT7mHTfdvQTSSvIPg6_BBw/o.jpg",
    "alias": "sportsbars",
    "title": "Sports Bars"
  },
  {
    "id": "xNNVZ3FHLfzF54eiqN3dYA",
    "name": "Four Humours",
    "review_count": 51,
    "rating": 5.0,
    "price_range": null,
    "location": {
      "city": "Philadelphia",
      "state": "PA"
    },
    "image_url": "https://s3-media1.fl.yelpcdn.com/bphoto/Y_sqZZRs6c-n-1DXtJRn8Q/o.jpg",
    "alias": "whiskeybars",
    "title": "Whiskey Bars"
  },
  {
    "id": "Iyopb5uFIBT_HOgp8ipSfw",
    "name": "Le Viet Restaurant",
    "review_count": 332,
    "rating": 4.0,
    "price_range": "$$",
    "location": {
      "city": "Philadelphia",
      "state": "PA"
    },
    "image_url": "https://s3-media1.fl.yelpcdn.com/bphoto/Ch7zgvSXU_ZrU-iAbseZSg/o.jpg",
    "alias": "vietnamese",
    "title": "Vietnamese"
  },
  {
    "id": "TRwPE6wsoAL6_fRaFdB4FA",
    "name": "Karma Restaurant & Bar",
    "review_count": 514,
    "rating": 4.0,
    "price_range": "$$",
    "location": {
      "city": "Philadelphia",
      "state": "PA"
    },
    "image_url": "https://s3-media1.fl.yelpcdn.com/bphoto/4dRijxYv-GcPeOD1TpEljA/o.jpg",
    "alias": "indpak",
    "title": "Indian"
  },
  {
    "id": "ZPFdJgzPjEUM6BoFfoV-ZA",
    "name": "McNally\u2019s Tavern Chestnut Hill",
    "review_count": 281,
    "rating": 4.5,
    "price_range": "$$",
    "location": {
      "city": "Philadelphia",
      "state": "PA"
    },
    "image_url": "https://s3-media2.fl.yelpcdn.com/bphoto/WXGurxv0jLrHEAnEtTYjiQ/o.jpg",
    "alias": "tradamerican",
    "title": "American"
  },
  {
    "id": "OHIFXh3X2x6hN6Fsuo0lDA",
    "name": "Tulip Pasta & Wine Bar",
    "review_count": 45,
    "rating": 4.0,
    "price_range": null,
    "location": {
      "city": "Philadelphia",
      "state": "PA"
    },
    "image_url": "https://s3-media3.fl.yelpcdn.com/bphoto/07t97s9vRb3rb9eWUfT2xA/o.jpg",
    "alias": "italian",
    "title": "Italian"
  },
  {
    "id": "qsm7SkX60JsajT7Yz248FA",
    "name": "Caf\u00e9 Soho",
    "review_count": 877,
    "rating": 4.0,
    "price_range": "$$",
    "location": {
      "city": "Philadelphia",
      "state": "PA"
    },
    "image_url": "https://s3-media3.fl.yelpcdn.com/bphoto/U_KqCfSPJup6BTGDLzyBbA/o.jpg",
    "alias": "korean",
    "title": "Korean"
  },
  {
    "id": "4qG7aFq9-45830OfYt7gCA",
    "name": "Radicchio Cafe",
    "review_count": 342,
    "rating": 4.5,
    "price_range": "$$",
    "location": {
      "city": "Philadelphia",
      "state": "PA"
    },
    "image_url": "https://s3-media2.fl.yelpcdn.com/bphoto/W7U51B06w3zZ5j-I1Bud6w/o.jpg",
    "alias": "italian",
    "title": "Italian"
  },
  {
    "id": "JZVK_yoV48O_2gDykG_1Ow",
    "name": "Bonks Bar",
    "review_count": 45,
    "rating": 4.0,
    "price_range": "$$",
    "location": {
      "city": "Philadelphia",
      "state": "PA"
    },
    "image_url": "https://s3-media3.fl.yelpcdn.com/bphoto/vo_2FgHyqPhamD-EZ_I0cw/o.jpg",
    "alias": "bars",
    "title": "Bars"
  },
  {
    "id": "efxiiiwXpF2pEsCfgeQc8g",
    "name": "Juno",
    "review_count": 290,
    "rating": 3.5,
    "price_range": "$$",
    "location": {
      "city": "Philadelphia",
      "state": "PA"
    },
    "image_url": "https://s3-media1.fl.yelpcdn.com/bphoto/AZVK76FDoV0iKq-NDtpH0A/o.jpg",
    "alias": "mexican",
    "title": "Mexican"
  },
  {
    "id": "D7h2pURcZkNxK8MIsJbmvA",
    "name": "My Loup",
    "review_count": 49,
    "rating": 4.5,
    "price_range": null,
    "location": {
      "city": "Philadelphia",
      "state": "PA"
    },
    "image_url": "https://s3-media1.fl.yelpcdn.com/bphoto/rVecfI5YB0seyPo9ue-vrw/o.jpg",
    "alias": "tradamerican",
    "title": "American"
  },
  {
    "id": "ELY0HI8GDEx0jkmREVna0A",
    "name": "Frankford Hall",
    "review_count": 1020,
    "rating": 4.0,
    "price_range": "$$",
    "location": {
      "city": "Philadelphia",
      "state": "PA"
    },
    "image_url": "https://s3-media3.fl.yelpcdn.com/bphoto/wBUJqSAOX1NkIr8QgTt5fQ/o.jpg",
    "alias": "german",
    "title": "German"
  },
  {
    "id": "o7YE1WaFeQg_piECb9cgjQ",
    "name": "Ratchada Thai & Laos Cuisine",
    "review_count": 348,
    "rating": 4.0,
    "price_range": "$$",
    "location": {
      "city": "Philadelphia",
      "state": "PA"
    },
    "image_url": "https://s3-media2.fl.yelpcdn.com/bphoto/liwgolZYqt3pDHsTrCyOmw/o.jpg",
    "alias": "thai",
    "title": "Thai"
  },
  {
    "id": "SPEXSaryxJmVpy8QoRz7Tg",
    "name": "Vietnam Cafe",
    "review_count": 398,
    "rating": 4.0,
    "price_range": "$$",
    "location": {
      "city": "Philadelphia",
      "state": "PA"
    },
    "image_url": "https://s3-media3.fl.yelpcdn.com/bphoto/bzJ4QB78cAVwHZdlp3sqjQ/o.jpg",
    "alias": "vietnamese",
    "title": "Vietnamese"
  },
  {
    "id": "vpfy4_N1PozCkvk2WDE_RQ",
    "name": "The Abbaye",
    "review_count": 317,
    "rating": 4.0,
    "price_range": "$$",
    "location": {
      "city": "Philadelphia",
      "state": "PA"
    },
    "image_url": "https://s3-media3.fl.yelpcdn.com/bphoto/4O2_hRCm1HRwNZHt0MRs1Q/o.jpg",
    "alias": "bars",
    "title": "Bars"
  },
  {
    "id": "LaTe2iIyih62D1kCQ0hflA",
    "name": "La Chinesca",
    "review_count": 164,
    "rating": 4.0,
    "price_range": "$$",
    "location": {
      "city": "Philadelphia",
      "state": "PA"
    },
    "image_url": "https://s3-media1.fl.yelpcdn.com/bphoto/Lnc5Q7B_X86VBwuJSIELdQ/o.jpg",
    "alias": "newmexican",
    "title": "New Mexican Cuisine"
  },
  {
    "id": "7BmboJEmyQ_DAgTCoCgpgg",
    "name": "Vientiane Bistro",
    "review_count": 84,
    "rating": 4.5,
    "price_range": null,
    "location": {
      "city": "Philadelphia",
      "state": "PA"
    },
    "image_url": "https://s3-media1.fl.yelpcdn.com/bphoto/mmFifM7CN7IqpdrpUExOgg/o.jpg",
    "alias": "laotian",
    "title": "Laotian"
  },
  {
    "id": "ErcLBEFjqr4nGbF4ozrvgg",
    "name": "Don Barriga Mexican Grill",
    "review_count": 164,
    "rating": 4.5,
    "price_range": null,
    "location": {
      "city": "Philadelphia",
      "state": "PA"
    },
    "image_url": "https://s3-media1.fl.yelpcdn.com/bphoto/n1U1ijnjQddIKRt7nM8kaQ/o.jpg",
    "alias": "mexican",
    "title": "Mexican"
  },
  {
    "id": "jNxvJeAUzzpC7zW3UN78HA",
    "name": "Pizza Shackamaxon",
    "review_count": 201,
    "rating": 4.0,
    "price_range": "$",
    "location": {
      "city": "Philadelphia",
      "state": "PA"
    },
    "image_url": "https://s3-media1.fl.yelpcdn.com/bphoto/5oz9Ahelnw_c_mIBsk0Igw/o.jpg",
    "alias": "pizza",
    "title": "Pizza"
  },
  {
    "id": "dUrtFfHBz15Q4GiyDFAqUw",
    "name": "New Ridge Brewing",
    "review_count": 86,
    "rating": 4.5,
    "price_range": "$$",
    "location": {
      "city": "Philadelphia",
      "state": "PA"
    },
    "image_url": "https://s3-media3.fl.yelpcdn.com/bphoto/qsVUfOTI4H1q8Bw7KWaSGQ/o.jpg",
    "alias": "breweries",
    "title": "Breweries"
  },
  {
    "id": "v72qGvd53IxhM2m8aatOpg",
    "name": "Kanella",
    "review_count": 308,
    "rating": 4.0,
    "price_range": "$$",
    "location": {
      "city": "Philadelphia",
      "state": "PA"
    },
    "image_url": "https://s3-media3.fl.yelpcdn.com/bphoto/PzIE8WNJKMHGgN2Tnf4UXA/o.jpg",
    "alias": "mediterranean",
    "title": "Mediterranean"
  },
  {
    "id": "DOl21AqtT74dUZ3kvXNNcA",
    "name": "Golden Triangle",
    "review_count": 182,
    "rating": 4.5,
    "price_range": "$$",
    "location": {
      "city": "Philadelphia",
      "state": "PA"
    },
    "image_url": "https://s3-media4.fl.yelpcdn.com/bphoto/dSXduYJ5B2PiO9z9AI3SgA/o.jpg",
    "alias": "thai",
    "title": "Thai"
  },
  {
    "id": "r3X75SK37buS94mDls3q_Q",
    "name": "Real Food Eatery",
    "review_count": 298,
    "rating": 4.5,
    "price_range": "$$",
    "location": {
      "city": "Philadelphia",
      "state": "PA"
    },
    "image_url": "https://s3-media1.fl.yelpcdn.com/bphoto/SLo88zfvAZzSpJprHfhtow/o.jpg",
    "alias": "tradamerican",
    "title": "American"
  },
  {
    "id": "PVVFos1LDfD7iETY0w4vaA",
    "name": "Su Xing House",
    "review_count": 448,
    "rating": 4.0,
    "price_range": "$$",
    "location": {
      "city": "Philadelphia",
      "state": "PA"
    },
    "image_url": "https://s3-media1.fl.yelpcdn.com/bphoto/5pWDcQhSXHeQBxcEiXef-A/o.jpg",
    "alias": "chinese",
    "title": "Chinese"
  },
  {
    "id": "nmeGoVi_U-bbnojJsi52Aw",
    "name": "The Angelo Pizza",
    "review_count": 120,
    "rating": 4.5,
    "price_range": null,
    "location": {
      "city": "Philadelphia",
      "state": "PA"
    },
    "image_url": "https://s3-media3.fl.yelpcdn.com/bphoto/CVpde2hS_m2n8QldMRtrrw/o.jpg",
    "alias": "pizza",
    "title": "Pizza"
  },
  {
    "id": "FqOCC8Y9xryaX7sIBJcrxA",
    "name": "Vic Sushi Bar",
    "review_count": 924,
    "rating": 4.0,
    "price_range": "$$",
    "location": {
      "city": "Philadelphia",
      "state": "PA"
    },
    "image_url": "https://s3-media1.fl.yelpcdn.com/bphoto/kiDkDnFRenbPpVfbXSbECg/o.jpg",
    "alias": "sushi",
    "title": "Sushi Bars"
  },
  {
    "id": "6ewV-e7-39oqYUq3yZuIyw",
    "name": "Sabrina's Caf\u00e9 - University City",
    "review_count": 973,
    "rating": 4.0,
    "price_range": "$$",
    "location": {
      "city": "Philadelphia",
      "state": "PA"
    },
    "image_url": "https://s3-media4.fl.yelpcdn.com/bphoto/YtBCcbn0NCw_pj6rYIR1rQ/o.jpg",
    "alias": "newamerican",
    "title": "New American"
  },
  {
    "id": "6OC8ErU_m06KABnfSXTJEA",
    "name": "Street Side",
    "review_count": 144,
    "rating": 4.5,
    "price_range": "$",
    "location": {
      "city": "Philadelphia",
      "state": "PA"
    },
    "image_url": "https://s3-media1.fl.yelpcdn.com/bphoto/-8NoSbCKe5KEfmVGCHPlPA/o.jpg",
    "alias": "vietnamese",
    "title": "Vietnamese"
  },
  {
    "id": "EreYgrQPuR7Sk_FKeZZg9g",
    "name": "Talula's Daily",
    "review_count": 394,
    "rating": 4.5,
    "price_range": "$$",
    "location": {
      "city": "Philadelphia",
      "state": "PA"
    },
    "image_url": "https://s3-media2.fl.yelpcdn.com/bphoto/RFHSG58Ts8ANNxoo7HP_Vg/o.jpg",
    "alias": "coffee",
    "title": "Coffee & Tea"
  },
  {
    "id": "03jQGGJ2ch0uHTtW-UUUqg",
    "name": "Famous 4th Street Delicatessen",
    "review_count": 725,
    "rating": 4.0,
    "price_range": "$$",
    "location": {
      "city": "Philadelphia",
      "state": "PA"
    },
    "image_url": "https://s3-media4.fl.yelpcdn.com/bphoto/fa_p4W5MigdYkYSzDs5O9Q/o.jpg",
    "alias": "delis",
    "title": "Delis"
  },
  {
    "id": "Vnagnur1os0ZduOpvDH27A",
    "name": "Villa Di Roma",
    "review_count": 480,
    "rating": 4.0,
    "price_range": "$$",
    "location": {
      "city": "Philadelphia",
      "state": "PA"
    },
    "image_url": "https://s3-media2.fl.yelpcdn.com/bphoto/HCkJ5Xn5hpbnAbooQjM2bQ/o.jpg",
    "alias": "italian",
    "title": "Italian"
  },
  {
    "id": "cXSyVvOr9YRN9diDkaWs0Q",
    "name": "Honey's Sit-N-Eat",
    "review_count": 1463,
    "rating": 4.0,
    "price_range": "$$",
    "location": {
      "city": "Philadelphia",
      "state": "PA"
    },
    "image_url": "https://s3-media2.fl.yelpcdn.com/bphoto/8VwNZvMAJlvSRZ6DKPvCHA/o.jpg",
    "alias": "southern",
    "title": "Southern"
  },
  {
    "id": "h0Gy4HEgeZvN9kb3_rB5JA",
    "name": "New Liberty Distillery",
    "review_count": 54,
    "rating": 4.5,
    "price_range": "$$",
    "location": {
      "city": "Philadelphia",
      "state": "PA"
    },
    "image_url": "https://s3-media4.fl.yelpcdn.com/bphoto/p-oov7XCAHv9yCA2bzwVzg/o.jpg",
    "alias": "distilleries",
    "title": "Distilleries"
  },
  {
    "id": "JQyF_uBfOKxO90FAehrTKA",
    "name": "Izlas Latin Cuisine",
    "review_count": 32,
    "rating": 4.0,
    "price_range": null,
    "location": {
      "city": "Philadelphia",
      "state": "PA"
    },
    "image_url": "https://s3-media4.fl.yelpcdn.com/bphoto/y3tYgHUl3nlMzL9ak7Zq7A/o.jpg",
    "alias": "latin",
    "title": "Latin American"
  },
  {
    "id": "GUMVStVaJfWmCIpQA4TtHg",
    "name": "Crazy Sushi",
    "review_count": 586,
    "rating": 4.0,
    "price_range": "$$",
    "location": {
      "city": "Philadelphia",
      "state": "PA"
    },
    "image_url": "https://s3-media3.fl.yelpcdn.com/bphoto/lgKiPyXaeFIjadu3HYBf6g/o.jpg",
    "alias": "japanese",
    "title": "Japanese"
  },
  {
    "id": "sQhh7JCGpqNgf0hHWc4m8g",
    "name": "On Point Bistro",
    "review_count": 285,
    "rating": 4.5,
    "price_range": "$$",
    "location": {
      "city": "Philadelphia",
      "state": "PA"
    },
    "image_url": "https://s3-media2.fl.yelpcdn.com/bphoto/M_E_595TXkzjp0uT6TL6KQ/o.jpg",
    "alias": "newamerican",
    "title": "New American"
  },
  {
    "id": "Y1il7un36AYb_1ZU8AzUSQ",
    "name": "Far East Descendant",
    "review_count": 99,
    "rating": 4.0,
    "price_range": null,
    "location": {
      "city": "Philadelphia",
      "state": "PA"
    },
    "image_url": "https://s3-media3.fl.yelpcdn.com/bphoto/Xa8arjlKRxVF-LZWVFCylA/o.jpg",
    "alias": "bars",
    "title": "Bars"
  },
  {
    "id": "POuaebsAeCyNx-8qZ3O7XQ",
    "name": "Heng Feng Hand Drawn Noodles",
    "review_count": 402,
    "rating": 4.0,
    "price_range": "$$",
    "location": {
      "city": "Philadelphia",
      "state": "PA"
    },
    "image_url": "https://s3-media4.fl.yelpcdn.com/bphoto/yf5G9gvgYyy4dK6BtLC5dg/o.jpg",
    "alias": "shanghainese",
    "title": "Shanghainese"
  },
  {
    "id": "rajhXVhe25WptAZx26UqTA",
    "name": "Chick's Philly",
    "review_count": 259,
    "rating": 4.0,
    "price_range": "$$",
    "location": {
      "city": "Philadelphia",
      "state": "PA"
    },
    "image_url": "https://s3-media4.fl.yelpcdn.com/bphoto/VUKsrNZ9FItovp31FD4UwA/o.jpg",
    "alias": "pizza",
    "title": "Pizza"
  },
  {
    "id": "QXGnmsKYANxOyZBqM-zlJA",
    "name": "The Plough & the Stars",
    "review_count": 506,
    "rating": 3.5,
    "price_range": "$$",
    "location": {
      "city": "Philadelphia",
      "state": "PA"
    },
    "image_url": "https://s3-media1.fl.yelpcdn.com/bphoto/-oKba7KfQMeY0ERS_XlklQ/o.jpg",
    "alias": "irish",
    "title": "Irish"
  },
  {
    "id": "bcRDUl_f3nCR77w8e-eyzg",
    "name": "Paulie Gee\u2019s Soul City Slice Shop",
    "review_count": 110,
    "rating": 4.5,
    "price_range": "$",
    "location": {
      "city": "Philadelphia",
      "state": "PA"
    },
    "image_url": "https://s3-media2.fl.yelpcdn.com/bphoto/_o4rYR-yt0Li0Iilb4JxdQ/o.jpg",
    "alias": "pizza",
    "title": "Pizza"
  },
  {
    "id": "RL1mug4X2HghyPZwkd8lSA",
    "name": "Midnight Iris",
    "review_count": 67,
    "rating": 4.5,
    "price_range": "$$",
    "location": {
      "city": "Philadelphia",
      "state": "PA"
    },
    "image_url": "https://s3-media2.fl.yelpcdn.com/bphoto/JfzUw49kBTKawBe1uuIppA/o.jpg",
    "alias": "bars",
    "title": "Bars"
  },
  {
    "id": "VP8HMhVt-pKmqGNmDW4-TQ",
    "name": "Nom Wah Philadelphia",
    "review_count": 513,
    "rating": 4.0,
    "price_range": "$$",
    "location": {
      "city": "Philadelphia",
      "state": "PA"
    },
    "image_url": "https://s3-media4.fl.yelpcdn.com/bphoto/pgDL9W1MYiZ27AavzgbXTQ/o.jpg",
    "alias": "dimsum",
    "title": "Dim Sum"
  },
  {
    "id": "0zWAsCBzvuCI_Ydx7yH1Jw",
    "name": "Shing Kee",
    "review_count": 99,
    "rating": 4.0,
    "price_range": "$$",
    "location": {
      "city": "Philadelphia",
      "state": "PA"
    },
    "image_url": "https://s3-media1.fl.yelpcdn.com/bphoto/i-fxGPDTWm1p1mcWsURczg/o.jpg",
    "alias": "chinese",
    "title": "Chinese"
  },
  {
    "id": "BnprLJ4Lr33--YjTmgk9Zg",
    "name": "Doma",
    "review_count": 487,
    "rating": 4.0,
    "price_range": "$$",
    "location": {
      "city": "Philadelphia",
      "state": "PA"
    },
    "image_url": "https://s3-media4.fl.yelpcdn.com/bphoto/XC4GA11BiiOsBifp3oE4yw/o.jpg",
    "alias": "sushi",
    "title": "Sushi Bars"
  },
  {
    "id": "SjI1_MBAAyUBFPByKmSsxw",
    "name": "Gilda Cafe and Market",
    "review_count": 37,
    "rating": 4.5,
    "price_range": "$$",
    "location": {
      "city": "Philadelphia",
      "state": "PA"
    },
    "image_url": "https://s3-media3.fl.yelpcdn.com/bphoto/lGN3aEz6hpsesoYE-veOWg/o.jpg",
    "alias": "portuguese",
    "title": "Portuguese"
  },
  {
    "id": "t8xJ1hwM41vYwe7LxIyqaw",
    "name": "Sally",
    "review_count": 102,
    "rating": 4.5,
    "price_range": null,
    "location": {
      "city": "Philadelphia",
      "state": "PA"
    },
    "image_url": "https://s3-media2.fl.yelpcdn.com/bphoto/wtprFWEdFtE9e2UbfGZDXA/o.jpg",
    "alias": "pizza",
    "title": "Pizza"
  },
  {
    "id": "azfjxlAnSATyLBAGiuSq3A",
    "name": "Lau Kee Restaurant",
    "review_count": 119,
    "rating": 4.5,
    "price_range": null,
    "location": {
      "city": "Philadelphia",
      "state": "PA"
    },
    "image_url": "https://s3-media1.fl.yelpcdn.com/bphoto/wHInyGUPr_v7bBfFveKNkQ/o.jpg",
    "alias": "chinese",
    "title": "Chinese"
  },
  {
    "id": "0-PClaUWGphUvuTH8wQ51w",
    "name": "Bloomsday Cafe",
    "review_count": 124,
    "rating": 4.5,
    "price_range": "$$",
    "location": {
      "city": "Philadelphia",
      "state": "PA"
    },
    "image_url": "https://s3-media3.fl.yelpcdn.com/bphoto/xuvJoLOLhe-C6wh8amOXjA/o.jpg",
    "alias": "coffee",
    "title": "Coffee & Tea"
  },
  {
    "id": "z5YxP_jyIU7dRKUA7V_H0w",
    "name": "Cily Chicken Rice",
    "review_count": 142,
    "rating": 4.5,
    "price_range": "$$",
    "location": {
      "city": "Philadelphia",
      "state": "PA"
    },
    "image_url": "https://s3-media2.fl.yelpcdn.com/bphoto/fGRalw9jcYtcD5_LlgF0OA/o.jpg",
    "alias": "thai",
    "title": "Thai"
  },
  {
    "id": "v-qDdlIXikYyh65Qij9fpA",
    "name": "Puyero Venezuelan Flavor",
    "review_count": 200,
    "rating": 4.5,
    "price_range": "$",
    "location": {
      "city": "Philadelphia",
      "state": "PA"
    },
    "image_url": "https://s3-media2.fl.yelpcdn.com/bphoto/fBCh14iTrILhn8qGtApL_g/o.jpg",
    "alias": "venezuelan",
    "title": "Venezuelan"
  },
  {
    "id": "dVC2Rg_BGW3XOIlvEFxh9g",
    "name": "DAWA Sushi & Ramen Bar",
    "review_count": 124,
    "rating": 4.5,
    "price_range": "$$",
    "location": {
      "city": "Philadelphia",
      "state": "PA"
    },
    "image_url": "https://s3-media2.fl.yelpcdn.com/bphoto/c9y6qsEeac-Q8oktZZ9oCQ/o.jpg",
    "alias": "ramen",
    "title": "Ramen"
  },
  {
    "id": "gCcJTKC40CL0XtYYGfcXDw",
    "name": "Smiley's Cafe",
    "review_count": 460,
    "rating": 4.5,
    "price_range": "$",
    "location": {
      "city": "Philadelphia",
      "state": "PA"
    },
    "image_url": "https://s3-media3.fl.yelpcdn.com/bphoto/V3kIs-9E5ho3JTqV6PCGjw/o.jpg",
    "alias": "mediterranean",
    "title": "Mediterranean"
  },
  {
    "id": "dG-gZOWzn8iO1Rvv_fbXxA",
    "name": "Silk City Diner & Lounge",
    "review_count": 1006,
    "rating": 4.0,
    "price_range": "$$",
    "location": {
      "city": "Philadelphia",
      "state": "PA"
    },
    "image_url": "https://s3-media3.fl.yelpcdn.com/bphoto/Sgca6cPU8V7xiSHwzEyhkg/o.jpg",
    "alias": "newamerican",
    "title": "New American"
  },
  {
    "id": "o1yg25_uuQ9lCSEUsIIeBg",
    "name": "Primary Plant Based",
    "review_count": 47,
    "rating": 5.0,
    "price_range": "$$",
    "location": {
      "city": "Philadelphia",
      "state": "PA"
    },
    "image_url": "https://s3-media4.fl.yelpcdn.com/bphoto/Ap4uSoiKfWbzygNjmPOKIg/o.jpg",
    "alias": "vegan",
    "title": "Vegan"
  },
  {
    "id": "waWvlZPOgPkfSTsnCju4aA",
    "name": "Amma's South Indian Cuisine",
    "review_count": 431,
    "rating": 4.0,
    "price_range": "$$",
    "location": {
      "city": "Philadelphia",
      "state": "PA"
    },
    "image_url": "https://s3-media2.fl.yelpcdn.com/bphoto/stV6209jNGUG66iX_J8tGg/o.jpg",
    "alias": "indpak",
    "title": "Indian"
  },
  {
    "id": "qtg5d6UmDVFeUw5ZKVBl4Q",
    "name": "Coffee House Too",
    "review_count": 256,
    "rating": 4.5,
    "price_range": "$$",
    "location": {
      "city": "Philadelphia",
      "state": "PA"
    },
    "image_url": "https://s3-media4.fl.yelpcdn.com/bphoto/ceXre5hy9TyuEJk7_ZybyA/o.jpg",
    "alias": "breakfast_brunch",
    "title": "Breakfast & Brunch"
  },
  {
    "id": "gYYMQeg4X8FUcCxXI4c2Tw",
    "name": "Steve's Prince of Steaks",
    "review_count": 594,
    "rating": 4.0,
    "price_range": "$$",
    "location": {
      "city": "Philadelphia",
      "state": "PA"
    },
    "image_url": "https://s3-media3.fl.yelpcdn.com/bphoto/mWeutmnV5Tszl1avr3lXxA/o.jpg",
    "alias": "sandwiches",
    "title": "Sandwiches"
  },
  {
    "id": "8j3blTZChklt3j89jxx0fw",
    "name": "Brauhaus Schmitz",
    "review_count": 817,
    "rating": 4.0,
    "price_range": "$$$",
    "location": {
      "city": "Philadelphia",
      "state": "PA"
    },
    "image_url": "https://s3-media3.fl.yelpcdn.com/bphoto/NRiWRtS6SAIa9rvnasvxIw/o.jpg",
    "alias": "german",
    "title": "German"
  },
  {
    "id": "DsKzHnkLKnxZTVsFpts4oA",
    "name": "Red Owl Tavern",
    "review_count": 711,
    "rating": 3.5,
    "price_range": "$$",
    "location": {
      "city": "Philadelphia",
      "state": "PA"
    },
    "image_url": "https://s3-media2.fl.yelpcdn.com/bphoto/t4AfhfEbxel6rwQ-O6c8bw/o.jpg",
    "alias": "newamerican",
    "title": "New American"
  },
  {
    "id": "0o8k654DD4h8ywBOXP1GRA",
    "name": "El Purepecha",
    "review_count": 339,
    "rating": 4.5,
    "price_range": "$$",
    "location": {
      "city": "Philadelphia",
      "state": "PA"
    },
    "image_url": "https://s3-media3.fl.yelpcdn.com/bphoto/DC7X50fH5HvnDf9SZtRUnw/o.jpg",
    "alias": "mexican",
    "title": "Mexican"
  },
  {
    "id": "-fs09akgCKv5rTTy7iUHUg",
    "name": "ICI Macarons & Cafe",
    "review_count": 311,
    "rating": 5.0,
    "price_range": "$$",
    "location": {
      "city": "Philadelphia",
      "state": "PA"
    },
    "image_url": "https://s3-media3.fl.yelpcdn.com/bphoto/G5cGkhv_3TTLPchVCjTHSg/o.jpg",
    "alias": "coffee",
    "title": "Coffee & Tea"
  },
  {
    "id": "YPLfRswyryjjW3VJa-SdaA",
    "name": "Ishkabibble's",
    "review_count": 829,
    "rating": 4.0,
    "price_range": "$$",
    "location": {
      "city": "Philadelphia",
      "state": "PA"
    },
    "image_url": "https://s3-media2.fl.yelpcdn.com/bphoto/PkX4o32z8TZn4HdwzTBAKA/o.jpg",
    "alias": "cheesesteaks",
    "title": "Cheesesteaks"
  },
  {
    "id": "mlrzM-jUkKot28XJhScuuA",
    "name": "Goldie",
    "review_count": 582,
    "rating": 4.5,
    "price_range": "$$",
    "location": {
      "city": "Philadelphia",
      "state": "PA"
    },
    "image_url": "https://s3-media4.fl.yelpcdn.com/bphoto/epzbe9iHe1hro8_kqjRQhQ/o.jpg",
    "alias": "falafel",
    "title": "Falafel"
  },
  {
    "id": "fq1yCVBgBB7s6V-D68NO1g",
    "name": "Cafe Mi Quang",
    "review_count": 81,
    "rating": 5.0,
    "price_range": "$",
    "location": {
      "city": "Philadelphia",
      "state": "PA"
    },
    "image_url": "https://s3-media3.fl.yelpcdn.com/bphoto/_gjLrCOKVWv2ob1r_hZoOw/o.jpg",
    "alias": "vietnamese",
    "title": "Vietnamese"
  },
  {
    "id": "YqmClmk7oLcDzPWKHzgA-Q",
    "name": "South Philadelphia Tap Room",
    "review_count": 553,
    "rating": 4.0,
    "price_range": "$$",
    "location": {
      "city": "Philadelphia",
      "state": "PA"
    },
    "image_url": "https://s3-media4.fl.yelpcdn.com/bphoto/WmJLc6sHmRUfUo_DvM0JYw/o.jpg",
    "alias": "bars",
    "title": "Bars"
  },
  {
    "id": "q-zV08jt6U-q05SMEuQJAQ",
    "name": "Tony and Nick's Steaks",
    "review_count": 2050,
    "rating": 4.0,
    "price_range": "$$",
    "location": {
      "city": "Philadelphia",
      "state": "PA"
    },
    "image_url": "https://s3-media1.fl.yelpcdn.com/bphoto/NW552nlzKhdSXOrXmJDqZQ/o.jpg",
    "alias": "sandwiches",
    "title": "Sandwiches"
  },
  {
    "id": "kOmhn5Eo6AWzMVL6ALRq2Q",
    "name": "Amazing Crab House",
    "review_count": 71,
    "rating": 4.5,
    "price_range": null,
    "location": {
      "city": "Philadelphia",
      "state": "PA"
    },
    "image_url": "https://s3-media3.fl.yelpcdn.com/bphoto/XuBZBFJg8oBG_G97BU4EMw/o.jpg",
    "alias": "seafood",
    "title": "Seafood"
  },
  {
    "id": "4zQV6v8TwEYMwI9Ekdf19g",
    "name": "Figs",
    "review_count": 323,
    "rating": 4.0,
    "price_range": "$$",
    "location": {
      "city": "Philadelphia",
      "state": "PA"
    },
    "image_url": "https://s3-media1.fl.yelpcdn.com/bphoto/pIL0kWF4NdPh91NlHeNPhQ/o.jpg",
    "alias": "moroccan",
    "title": "Moroccan"
  },
  {
    "id": "vq73W-SHrwBgXzQ__0yV2w",
    "name": "Second District Brewing",
    "review_count": 120,
    "rating": 4.0,
    "price_range": "$$",
    "location": {
      "city": "Philadelphia",
      "state": "PA"
    },
    "image_url": "https://s3-media2.fl.yelpcdn.com/bphoto/r6JA1VfRnBIPwrPsqBxhvA/o.jpg",
    "alias": "breweries",
    "title": "Breweries"
  },
  {
    "id": "oIr50siZDtDYCE_p5K8nYA",
    "name": "Winkel",
    "review_count": 351,
    "rating": 4.5,
    "price_range": "$$",
    "location": {
      "city": "Philadelphia",
      "state": "PA"
    },
    "image_url": "https://s3-media1.fl.yelpcdn.com/bphoto/cUCpdMH7QECh9mXB2hHXuA/o.jpg",
    "alias": "breakfast_brunch",
    "title": "Breakfast & Brunch"
  },
  {
    "id": "Q9poenJ9SS3agpPo4Pgyyg",
    "name": "Ray's Caf\u00e9 & Teahouse",
    "review_count": 224,
    "rating": 4.5,
    "price_range": "$$",
    "location": {
      "city": "Philadelphia",
      "state": "PA"
    },
    "image_url": "https://s3-media3.fl.yelpcdn.com/bphoto/i26Tb1QHQG4-VhZ6b6c9_Q/o.jpg",
    "alias": "coffee",
    "title": "Coffee & Tea"
  },
  {
    "id": "MKsCFQuzmgH2We9hwTQ8gw",
    "name": "South Street Souvlaki",
    "review_count": 242,
    "rating": 4.0,
    "price_range": "$$",
    "location": {
      "city": "Philadelphia",
      "state": "PA"
    },
    "image_url": "https://s3-media3.fl.yelpcdn.com/bphoto/BjAxjhBX1mdLHSlFqRW36Q/o.jpg",
    "alias": "greek",
    "title": "Greek"
  },
  {
    "id": "5ItgryJvadUrKVljjJ8l4g",
    "name": "Que Chula Es Puebla",
    "review_count": 279,
    "rating": 4.0,
    "price_range": "$$",
    "location": {
      "city": "Philadelphia",
      "state": "PA"
    },
    "image_url": "https://s3-media4.fl.yelpcdn.com/bphoto/Jxgj8LLiluZ_J-l2vQOJJw/o.jpg",
    "alias": "mexican",
    "title": "Mexican"
  },
  {
    "id": "SSoN6EHMxzrdQfwf9T74jw",
    "name": "The Tavern Restaurant",
    "review_count": 82,
    "rating": 4.5,
    "price_range": "$$",
    "location": {
      "city": "Philadelphia",
      "state": "PA"
    },
    "image_url": "https://s3-media2.fl.yelpcdn.com/bphoto/0Ya3-6YBQSaKPIRvLnPrcg/o.jpg",
    "alias": "tradamerican",
    "title": "American"
  },
  {
    "id": "JDv3h1xRFIW8fXckqgTdRg",
    "name": "Fuji Mountain",
    "review_count": 507,
    "rating": 4.0,
    "price_range": "$$",
    "location": {
      "city": "Philadelphia",
      "state": "PA"
    },
    "image_url": "https://s3-media2.fl.yelpcdn.com/bphoto/J9O3bF0R0pys2CLmDZ-EEQ/o.jpg",
    "alias": "japanese",
    "title": "Japanese"
  },
  {
    "id": "kDzp5FXnuG3Pwk6orhfl8A",
    "name": "Circles + Squares",
    "review_count": 124,
    "rating": 5.0,
    "price_range": "$$",
    "location": {
      "city": "Philadelphia",
      "state": "PA"
    },
    "image_url": "https://s3-media1.fl.yelpcdn.com/bphoto/tzdti5LGsBdbgImf0t_cKw/o.jpg",
    "alias": "pizza",
    "title": "Pizza"
  },
  {
    "id": "W4aXtdp4MVjXLWIG7aGsUQ",
    "name": "Stateside Vodka Bar",
    "review_count": 90,
    "rating": 4.5,
    "price_range": "$$",
    "location": {
      "city": "Philadelphia",
      "state": "PA"
    },
    "image_url": "https://s3-media2.fl.yelpcdn.com/bphoto/Bh-L3vMMeHqE72OJlcW3zQ/o.jpg",
    "alias": "bars",
    "title": "Bars"
  },
  {
    "id": "SADPX8WX34EQDj_jqtacMw",
    "name": "Bai Wei",
    "review_count": 299,
    "rating": 4.0,
    "price_range": "$$",
    "location": {
      "city": "Philadelphia",
      "state": "PA"
    },
    "image_url": "https://s3-media3.fl.yelpcdn.com/bphoto/EY6WXvASnhjIdRhZRaw8OA/o.jpg",
    "alias": "szechuan",
    "title": "Szechuan"
  },
  {
    "id": "aUoMG97DMJG4nmwhT6z1zA",
    "name": "Devon Seafood Grill",
    "review_count": 1290,
    "rating": 3.5,
    "price_range": "$$$",
    "location": {
      "city": "Philadelphia",
      "state": "PA"
    },
    "image_url": "https://s3-media3.fl.yelpcdn.com/bphoto/9QjWRxl5kkJ9amNUFL4C8Q/o.jpg",
    "alias": "bars",
    "title": "Bars"
  },
  {
    "id": "Wfg85U89qt1OA7aqw5trFA",
    "name": "More Sugar",
    "review_count": 86,
    "rating": 4.5,
    "price_range": "$$",
    "location": {
      "city": "Philadelphia",
      "state": "PA"
    },
    "image_url": "https://s3-media1.fl.yelpcdn.com/bphoto/iQufheGLPmNMUs5_lXZ4FQ/o.jpg",
    "alias": "desserts",
    "title": "Desserts"
  },
  {
    "id": "w_JNBcdRer2wZlKMiC4hHA",
    "name": "Flannel",
    "review_count": 193,
    "rating": 4.5,
    "price_range": "$$",
    "location": {
      "city": "Philadelphia",
      "state": "PA"
    },
    "image_url": "https://s3-media4.fl.yelpcdn.com/bphoto/pAHAH02W7VeNkX50bfuq5A/o.jpg",
    "alias": "southern",
    "title": "Southern"
  },
  {
    "id": "IGxrAQcqw8Mr1x9WLXQsNA",
    "name": "Hawthornes Beer Cafe",
    "review_count": 762,
    "rating": 4.0,
    "price_range": "$$",
    "location": {
      "city": "Philadelphia",
      "state": "PA"
    },
    "image_url": "https://s3-media3.fl.yelpcdn.com/bphoto/lwTRJ2ll7rXJPUM92C8FOw/o.jpg",
    "alias": "beer_and_wine",
    "title": "Beer, Wine & Spirits"
  },
  {
    "id": "mBgaPljP3OYkl_vGKTyFNw",
    "name": "LaScala's Birra",
    "review_count": 428,
    "rating": 4.0,
    "price_range": "$$",
    "location": {
      "city": "Philadelphia",
      "state": "PA"
    },
    "image_url": "https://s3-media1.fl.yelpcdn.com/bphoto/MixADsahaCO1j_XKpRXYmQ/o.jpg",
    "alias": "pizza",
    "title": "Pizza"
  },
  {
    "id": "YzluF3FNGjnW-tOrLZt8JA",
    "name": "Zama",
    "review_count": 626,
    "rating": 4.0,
    "price_range": "$$$",
    "location": {
      "city": "Philadelphia",
      "state": "PA"
    },
    "image_url": "https://s3-media4.fl.yelpcdn.com/bphoto/q3oKUCYfe_oiR7QXBKud5w/o.jpg",
    "alias": "sushi",
    "title": "Sushi Bars"
  }
]