[
  {
    "id": "ifEkf8JxP3RCBeszcIGLww",
    "name": "Scalessa's",
    "review_count": 312,
    "rating": 5.0,
    "price_range": "$$",
    "location": {
      "city": "Wilmington",
      "state": "DE"
    },
    "image_url": "https://s3-media4.fl.yelpcdn.com/bphoto/cryMlGnD3HeKAD45aqeE6g/o.jpg",
    "alias": "italian",
    "title": "Italian"
  },
  {
    "id": "EP9K6qXOyHFq_0tp93wh9Q",
    "name": "Big Fish Grill on the Riverfront",
    "review_count": 613,
    "rating": 4.0,
    "price_range": "$$",
    "location": {
      "city": "Wilmington",
      "state": "DE"
    },
    "image_url": "https://s3-media3.fl.yelpcdn.com/bphoto/nj9CAhvJZlBofQlVy8SuVw/o.jpg",
    "alias": "seafood",
    "title": "Seafood"
  },
  {
    "id": "mNKL1JPiN2zBrUmIgTM56A",
    "name": "Eclipse Bistro",
    "review_count": 180,
    "rating": 4.5,
    "price_range": "$$$",
    "location": {
      "city": "Wilmington",
      "state": "DE"
    },
    "image_url": "https://s3-media1.fl.yelpcdn.com/bphoto/0FO3ZdtJt6XXX-OTuVYtnQ/o.jpg",
    "alias": "newamerican",
    "title": "New American"
  },
  {
    "id": "Nvy1jETQItFjG0oyjpGk7w",
    "name": "Farmer & the Cow",
    "review_count": 337,
    "rating": 4.0,
    "price_range": "$$",
    "location": {
      "city": "Wilmington",
      "state": "DE"
    },
    "image_url": "https://s3-media1.fl.yelpcdn.com/bphoto/B66F5T_pdATJQH6syUaqTA/o.jpg",
    "alias": "burgers",
    "title": "Burgers"
  },
  {
    "id": "YdpDpp130fxiX2DUdQLSqg",
    "name": "Bardea Food & Drink",
    "review_count": 285,
    "rating": 4.0,
    "price_range": "$$",
    "location": {
      "city": "Wilmington",
      "state": "DE"
    },
    "image_url": "https://s3-media3.fl.yelpcdn.com/bphoto/ImbPlyxvXYbeM53Fe-SLAA/o.jpg",
    "alias": "bars",
    "title": "Bars"
  },
  {
    "id": "pVNQNJe5D5jnygJjWwSnfw",
    "name": "Snuff Mill",
    "review_count": 58,
    "rating": 4.5,
    "price_range": null,
    "location": {
      "city": "Wilmington",
      "state": "DE"
    },
    "image_url": "https://s3-media4.fl.yelpcdn.com/bphoto/93E5i5XkOZYuntnrCRXbLw/o.jpg",
    "alias": "wine_bars",
    "title": "Wine Bars"
  },
  {
    "id": "hJ0QkeOdQ5y7MTmdR9NO1Q",
    "name": "The Copper Dram",
    "review_count": 85,
    "rating": 4.5,
    "price_range": "$$",
    "location": {
      "city": "Greenville",
      "state": "DE"
    },
    "image_url": "https://s3-media2.fl.yelpcdn.com/bphoto/hGJZyqPNSiuE5Xv-SApSCw/o.jpg",
    "alias": "cocktailbars",
    "title": "Cocktail Bars"
  },
  {
    "id": "BHTpjNMdeja_cg9pRnRBOA",
    "name": "Kid Shelleen's - Trolley Square",
    "review_count": 297,
    "rating": 4.0,
    "price_range": "$$",
    "location": {
      "city": "Wilmington",
      "state": "DE"
    },
    "image_url": "https://s3-media2.fl.yelpcdn.com/bphoto/5MCw1822ybMEHKSLtfY21w/o.jpg",
    "alias": "tradamerican",
    "title": "American"
  },
  {
    "id": "lqMOJ_cVSvVU-lferJVPLg",
    "name": "La Pizzeria Metro",
    "review_count": 159,
    "rating": 4.5,
    "price_range": "$$",
    "location": {
      "city": "Wilmington",
      "state": "DE"
    },
    "image_url": "https://s3-media2.fl.yelpcdn.com/bphoto/bZ0VCaVJKsbdb_ews_mL6Q/o.jpg",
    "alias": "pizza",
    "title": "Pizza"
  },
  {
    "id": "51Fo_uY52A5oaI8YTHU5yg",
    "name": "Trolley Square Oyster House",
    "review_count": 244,
    "rating": 4.0,
    "price_range": "$$",
    "location": {
      "city": "Wilmington",
      "state": "DE"
    },
    "image_url": "https://s3-media1.fl.yelpcdn.com/bphoto/Yyc6kbhtMTin3ZQikItSUQ/o.jpg",
    "alias": "seafood",
    "title": "Seafood"
  },
  {
    "id": "DZUZbsr-a_59zjjPY8rGKQ",
    "name": "Stitch House Brewery",
    "review_count": 197,
    "rating": 4.0,
    "price_range": "$$",
    "location": {
      "city": "Wilmington",
      "state": "DE"
    },
    "image_url": "https://s3-media3.fl.yelpcdn.com/bphoto/fJxlslJj9JXrd268-js26w/o.jpg",
    "alias": "newamerican",
    "title": "New American"
  },
  {
    "id": "LGYzaCmNj3_FiG-r8U1-mw",
    "name": "Capers & Lemons Restaurant",
    "review_count": 251,
    "rating": 4.0,
    "price_range": "$$",
    "location": {
      "city": "Wilmington",
      "state": "DE"
    },
    "image_url": "https://s3-media1.fl.yelpcdn.com/bphoto/NiaKN23fjKdb38471YQTgw/o.jpg",
    "alias": "italian",
    "title": "Italian"
  },
  {
    "id": "R5yCU9dJnGcXw3voSB7pKg",
    "name": "Del Pez Mexican Gastropub",
    "review_count": 377,
    "rating": 4.0,
    "price_range": "$$",
    "location": {
      "city": "Wilmington",
      "state": "DE"
    },
    "image_url": "https://s3-media2.fl.yelpcdn.com/bphoto/AR3kWUEZhpzyrpRUzHWEQQ/o.jpg",
    "alias": "newmexican",
    "title": "New Mexican Cuisine"
  },
  {
    "id": "sX_vxWQuZu_EA1bkCX95Yw",
    "name": "Tonic Seafood & Steak",
    "review_count": 155,
    "rating": 4.0,
    "price_range": "$$",
    "location": {
      "city": "Wilmington",
      "state": "DE"
    },
    "image_url": "https://s3-media3.fl.yelpcdn.com/bphoto/FwgLSkCsOMUOk57NCUbrfA/o.jpg",
    "alias": "bars",
    "title": "Bars"
  },
  {
    "id": "q2SSz2-nRYWeFG2EoUMuZQ",
    "name": "Santa Fe Mexican Grill - Wilmington",
    "review_count": 83,
    "rating": 4.0,
    "price_range": "$$",
    "location": {
      "city": "Wilmington",
      "state": "DE"
    },
    "image_url": "https://s3-media4.fl.yelpcdn.com/bphoto/AOQ7-Rdqa8AVJM-7UYPL5w/o.jpg",
    "alias": "latin",
    "title": "Latin American"
  },
  {
    "id": "SwDn4LYC7uzQMmIz8RMBBg",
    "name": "Corner Bistro",
    "review_count": 230,
    "rating": 4.0,
    "price_range": "$$",
    "location": {
      "city": "Wilmington",
      "state": "DE"
    },
    "image_url": "https://s3-media3.fl.yelpcdn.com/bphoto/IV7tw78pkBA7i8n1n4hySA/o.jpg",
    "alias": "newamerican",
    "title": "New American"
  },
  {
    "id": "2KnB5sR6QmD8YRcEGsa8ow",
    "name": "Dorcea",
    "review_count": 66,
    "rating": 4.5,
    "price_range": null,
    "location": {
      "city": "Wilmington",
      "state": "DE"
    },
    "image_url": "https://s3-media2.fl.yelpcdn.com/bphoto/dx9H1QjWgsUPKQjIpf_g-g/o.jpg",
    "alias": "tradamerican",
    "title": "American"
  },
  {
    "id": "mcmOeaoHlryrtogjd3tooQ",
    "name": "La Fia",
    "review_count": 204,
    "rating": 4.0,
    "price_range": "$$",
    "location": {
      "city": "Wilmington",
      "state": "DE"
    },
    "image_url": "https://s3-media2.fl.yelpcdn.com/bphoto/Z3V0L8iHAqKbY4scv3Bsow/o.jpg",
    "alias": "italian",
    "title": "Italian"
  },
  {
    "id": "yJ2585fQD8lcuckZ4QIdmw",
    "name": "Pho Bami",
    "review_count": 146,
    "rating": 4.5,
    "price_range": "$$",
    "location": {
      "city": "Wilmington",
      "state": "DE"
    },
    "image_url": "https://s3-media1.fl.yelpcdn.com/bphoto/MCUXgePFWjsxWUQKKvU5_Q/o.jpg",
    "alias": "vietnamese",
    "title": "Vietnamese"
  },
  {
    "id": "SYcdJP123caYVCkZ27BIOw",
    "name": "Southeast Kitchen",
    "review_count": 272,
    "rating": 4.0,
    "price_range": "$$",
    "location": {
      "city": "Wilmington",
      "state": "DE"
    },
    "image_url": "https://s3-media4.fl.yelpcdn.com/bphoto/Naen1JSxkpQUgxlLJFfPRw/o.jpg",
    "alias": "vietnamese",
    "title": "Vietnamese"
  },
  {
    "id": "QOMipQ_Xd2ISvO0MvAS_xQ",
    "name": "Gaudiello's Italian Hoagies",
    "review_count": 131,
    "rating": 4.5,
    "price_range": "$$",
    "location": {
      "city": "Wilmington",
      "state": "DE"
    },
    "image_url": "https://s3-media2.fl.yelpcdn.com/bphoto/sFhzqYSsyxNT3dFVed1shw/o.jpg",
    "alias": "sandwiches",
    "title": "Sandwiches"
  },
  {
    "id": "qFsh80AAL90tkOc0n98bqg",
    "name": "El Diablo Burritos",
    "review_count": 349,
    "rating": 4.5,
    "price_range": "$$",
    "location": {
      "city": "Wilmington",
      "state": "DE"
    },
    "image_url": "https://s3-media4.fl.yelpcdn.com/bphoto/3xCU9rmS-7ZUG12cvCXIcA/o.jpg",
    "alias": "tacos",
    "title": "Tacos"
  },
  {
    "id": "3qRDGcBOcfFnEfAzVLO6oA",
    "name": "Luigi Vitrone's Pastabilities Restaurant",
    "review_count": 69,
    "rating": 4.5,
    "price_range": "$$",
    "location": {
      "city": "Wilmington",
      "state": "DE"
    },
    "image_url": "https://s3-media2.fl.yelpcdn.com/bphoto/LlguC4fRjgBnG2t4SbXlxw/o.jpg",
    "alias": "italian",
    "title": "Italian"
  },
  {
    "id": "K6SQfxBapNAIVr_C73ohlw",
    "name": "Rasa Sayang",
    "review_count": 305,
    "rating": 4.0,
    "price_range": "$$",
    "location": {
      "city": "Wilmington",
      "state": "DE"
    },
    "image_url": "https://s3-media1.fl.yelpcdn.com/bphoto/0JWuoa0ZqyBOsVTjbyh1ew/o.jpg",
    "alias": "malaysian",
    "title": "Malaysian"
  },
  {
    "id": "Wbqv9rUtbNanq-hhegOYsg",
    "name": "Pizza by Elizabeths",
    "review_count": 228,
    "rating": 4.0,
    "price_range": "$$",
    "location": {
      "city": "Wilmington",
      "state": "DE"
    },
    "image_url": "https://s3-media1.fl.yelpcdn.com/bphoto/wjfxSqWoqi4iUF5W0PN1Gw/o.jpg",
    "alias": "pizza",
    "title": "Pizza"
  },
  {
    "id": "lgxwrbvtz-Vqhc-oryi5qQ",
    "name": "Ciro Food & Drink",
    "review_count": 69,
    "rating": 4.5,
    "price_range": null,
    "location": {
      "city": "Wilmington",
      "state": "DE"
    },
    "image_url": "https://s3-media1.fl.yelpcdn.com/bphoto/KNEhzMw1cLBMR3hxgsBFeQ/o.jpg",
    "alias": "tapasmallplates",
    "title": "Tapas/Small Plates"
  },
  {
    "id": "zz0l4dUf28wzPAaTdGqsSw",
    "name": "El Pique - Wilmington",
    "review_count": 200,
    "rating": 4.5,
    "price_range": "$$",
    "location": {
      "city": "Wilmington",
      "state": "DE"
    },
    "image_url": "https://s3-media1.fl.yelpcdn.com/bphoto/1pjXw4EjGuIHz7E0MqTf8Q/o.jpg",
    "alias": "mexican",
    "title": "Mexican"
  },
  {
    "id": "EMVKCwf8Ck0XsADY_kCWkw",
    "name": "Wilma's",
    "review_count": 71,
    "rating": 4.0,
    "price_range": null,
    "location": {
      "city": "Wilmington",
      "state": "DE"
    },
    "image_url": "https://s3-media2.fl.yelpcdn.com/bphoto/1iZE7LhSHwTJ5as5pPwHEg/o.jpg",
    "alias": "cajun",
    "title": "Cajun/Creole"
  },
  {
    "id": "VNf2NwMjjcYVBWGGMigTtA",
    "name": "King Taco",
    "review_count": 62,
    "rating": 4.5,
    "price_range": "$$",
    "location": {
      "city": "Wilmington",
      "state": "DE"
    },
    "image_url": "https://s3-media2.fl.yelpcdn.com/bphoto/CtKM_qUlI0KYE5cBYjwXwg/o.jpg",
    "alias": "mexican",
    "title": "Mexican"
  },
  {
    "id": "LwXkXDdsu1yWWcWAbt2fYw",
    "name": "Mazzella's Italian Restaurant",
    "review_count": 200,
    "rating": 4.0,
    "price_range": "$$",
    "location": {
      "city": "Wilmington",
      "state": "DE"
    },
    "image_url": "https://s3-media3.fl.yelpcdn.com/bphoto/j75L5djdwVQon9OUpq8Npg/o.jpg",
    "alias": "italian",
    "title": "Italian"
  },
  {
    "id": "jeL2UXjzEqjAj9hXhIdagg",
    "name": "Merchant Bar",
    "review_count": 66,
    "rating": 4.0,
    "price_range": "$$",
    "location": {
      "city": "Wilmington",
      "state": "DE"
    },
    "image_url": "https://s3-media3.fl.yelpcdn.com/bphoto/c3R1-CuctGQODlUKXOzUaQ/o.jpg",
    "alias": "tapas",
    "title": "Tapas Bars"
  },
  {
    "id": "mnyk_gnb60vFB2o6Y8c2Gw",
    "name": "Rocco Italian Grill & Sports Bar",
    "review_count": 110,
    "rating": 4.0,
    "price_range": "$$",
    "location": {
      "city": "Wilmington",
      "state": "DE"
    },
    "image_url": "https://s3-media2.fl.yelpcdn.com/bphoto/drsQRAPLQwca-NCmBrLtnA/o.jpg",
    "alias": "sportsbars",
    "title": "Sports Bars"
  },
  {
    "id": "ElEbumta2ujV9PTx4OGbVw",
    "name": "Columbus Inn",
    "review_count": 178,
    "rating": 3.5,
    "price_range": "$$",
    "location": {
      "city": "Wilmington",
      "state": "DE"
    },
    "image_url": "https://s3-media2.fl.yelpcdn.com/bphoto/kmwaKuRPUCCDEsuBx9JJ_A/o.jpg",
    "alias": "newamerican",
    "title": "New American"
  },
  {
    "id": "HsCX4E7_k-XXS-1iTz17CA",
    "name": "Go Vegan Philly",
    "review_count": 48,
    "rating": 5.0,
    "price_range": null,
    "location": {
      "city": "Wilmington",
      "state": "DE"
    },
    "image_url": "https://s3-media2.fl.yelpcdn.com/bphoto/CpeZFbajD81k2XRlHiskqw/o.jpg",
    "alias": "vegan",
    "title": "Vegan"
  },
  {
    "id": "_Zfv50FuNuBX11OHuzR-QQ",
    "name": "Three Amigos",
    "review_count": 21,
    "rating": 4.5,
    "price_range": null,
    "location": {
      "city": "Wilmington",
      "state": "DE"
    },
    "image_url": "https://s3-media3.fl.yelpcdn.com/bphoto/iP4XlgV4iIO-xYtcSj_LWg/o.jpg",
    "alias": "mexican",
    "title": "Mexican"
  },
  {
    "id": "1lOOo2L-Q9jvJAs-nN9dlQ",
    "name": "The Melting Pot",
    "review_count": 105,
    "rating": 4.0,
    "price_range": "$$$",
    "location": {
      "city": "Wilmington",
      "state": "DE"
    },
    "image_url": "https://s3-media4.fl.yelpcdn.com/bphoto/F4JViF-wUkfZhrmV1Ty0Cg/o.jpg",
    "alias": "fondue",
    "title": "Fondue"
  },
  {
    "id": "19fHbf0qzihtEtXQZ2ntww",
    "name": "Walter's Steakhouse",
    "review_count": 110,
    "rating": 4.0,
    "price_range": "$$$",
    "location": {
      "city": "Wilmington",
      "state": "DE"
    },
    "image_url": "https://s3-media2.fl.yelpcdn.com/bphoto/Rotj6k2vYmwJ5N-L7HjaAw/o.jpg",
    "alias": "steak",
    "title": "Steakhouses"
  },
  {
    "id": "nTIbCcAYMRrzUm29h0dk8Q",
    "name": "DiMeo's Pizza",
    "review_count": 166,
    "rating": 4.0,
    "price_range": "$$",
    "location": {
      "city": "Wilmington",
      "state": "DE"
    },
    "image_url": "https://s3-media2.fl.yelpcdn.com/bphoto/oy5YwhBeQDygtzb_Z-ZARQ/o.jpg",
    "alias": "pizza",
    "title": "Pizza"
  },
  {
    "id": "timmWUfeZ0ES0-mGnY5E2g",
    "name": "Park Caf\u00e9",
    "review_count": 26,
    "rating": 4.5,
    "price_range": null,
    "location": {
      "city": "Wilmington",
      "state": "DE"
    },
    "image_url": "https://s3-media1.fl.yelpcdn.com/bphoto/kvjVO-FTxtL4APRwia13Ag/o.jpg",
    "alias": "salad",
    "title": "Salad"
  },
  {
    "id": "5L918sNOVHcCJKZ7RWATBw",
    "name": "Washington Street Ale House",
    "review_count": 274,
    "rating": 3.5,
    "price_range": "$$",
    "location": {
      "city": "Wilmington",
      "state": "DE"
    },
    "image_url": "https://s3-media2.fl.yelpcdn.com/bphoto/o8lvlq2odguVc34wiBVlmw/o.jpg",
    "alias": "tradamerican",
    "title": "American"
  },
  {
    "id": "_ju1BXAF5g5QtAFfZZKO1g",
    "name": "Brew Ha Ha",
    "review_count": 101,
    "rating": 4.0,
    "price_range": "$$",
    "location": {
      "city": "Greenville",
      "state": "DE"
    },
    "image_url": "https://s3-media4.fl.yelpcdn.com/bphoto/9TDVwu1taX_UvqMN9bDO1Q/o.jpg",
    "alias": "coffee",
    "title": "Coffee & Tea"
  },
  {
    "id": "JaJDxNxLsV4h_Nkt7HsMAA",
    "name": "Goober\u2019s Diner",
    "review_count": 79,
    "rating": 4.0,
    "price_range": "$$",
    "location": {
      "city": "Wilmington",
      "state": "DE"
    },
    "image_url": "https://s3-media2.fl.yelpcdn.com/bphoto/p3B9PLYEV9xwxAuDJUx_EA/o.jpg",
    "alias": "diners",
    "title": "Diners"
  },
  {
    "id": "S6ACtNZ5wY0EjmK07iWUgg",
    "name": "Iron Hill Brewery & Restaurant",
    "review_count": 605,
    "rating": 3.5,
    "price_range": "$$",
    "location": {
      "city": "Wilmington",
      "state": "DE"
    },
    "image_url": "https://s3-media3.fl.yelpcdn.com/bphoto/v55FgqHFjEyzlX85s58NPg/o.jpg",
    "alias": "breweries",
    "title": "Breweries"
  },
  {
    "id": "Te4yTJ7blab4s_JTAF71Iw",
    "name": "Sakura Japanese Sushi Restaurant in Elsmere",
    "review_count": 210,
    "rating": 4.5,
    "price_range": "$$",
    "location": {
      "city": "Wilmington",
      "state": "DE"
    },
    "image_url": "https://s3-media2.fl.yelpcdn.com/bphoto/_uZPZW1EZ0PglZbIGfg8AQ/o.jpg",
    "alias": "sushi",
    "title": "Sushi Bars"
  },
  {
    "id": "zgSZxYaCI0wcMTR0Dxd7oQ",
    "name": "Dead Presidents Pub & Restaurant",
    "review_count": 104,
    "rating": 3.5,
    "price_range": "$$",
    "location": {
      "city": "Wilmington",
      "state": "DE"
    },
    "image_url": "https://s3-media3.fl.yelpcdn.com/bphoto/0wPx9UOck-zfjuxgjw_Eww/o.jpg",
    "alias": "tradamerican",
    "title": "American"
  },
  {
    "id": "_6BiItGONFUlzOYEYBMFkA",
    "name": "Trolley Tap House",
    "review_count": 89,
    "rating": 3.5,
    "price_range": "$$",
    "location": {
      "city": "Wilmington",
      "state": "DE"
    },
    "image_url": "https://s3-media2.fl.yelpcdn.com/bphoto/100J_i_Kb9YpmWTRUPBTiQ/o.jpg",
    "alias": "tradamerican",
    "title": "American"
  },
  {
    "id": "LI1pBFuAuen2hD2a5rilug",
    "name": "Torbert Street Social",
    "review_count": 54,
    "rating": 4.0,
    "price_range": null,
    "location": {
      "city": "Wilmington",
      "state": "DE"
    },
    "image_url": "https://s3-media4.fl.yelpcdn.com/bphoto/UyXrCCYL0uktgwDvlBp2RQ/o.jpg",
    "alias": "tapasmallplates",
    "title": "Tapas/Small Plates"
  },
  {
    "id": "Lmb-iJGzBu_1W-dEvB3TBQ",
    "name": "Krazy Kat's Restaurant",
    "review_count": 106,
    "rating": 4.0,
    "price_range": "$$$",
    "location": {
      "city": "Montchanin",
      "state": "DE"
    },
    "image_url": "https://s3-media2.fl.yelpcdn.com/bphoto/IKY9QBJ2dW_pQv8c9OfbFg/o.jpg",
    "alias": "newamerican",
    "title": "New American"
  },
  {
    "id": "180uNNGSNDsn3JQvHbyi7A",
    "name": "Oath 84",
    "review_count": 21,
    "rating": 4.5,
    "price_range": null,
    "location": {
      "city": "Wilmington",
      "state": "DE"
    },
    "image_url": "https://s3-media2.fl.yelpcdn.com/bphoto/qhcr85dWpd61cl-hspxIzg/o.jpg",
    "alias": "newamerican",
    "title": "New American"
  },
  {
    "id": "XjaYTbAMsIOkofZJ4QSuJA",
    "name": "Sleeping Bird Coffee",
    "review_count": 41,
    "rating": 4.5,
    "price_range": null,
    "location": {
      "city": "Wilmington",
      "state": "DE"
    },
    "image_url": "https://s3-media1.fl.yelpcdn.com/bphoto/LeFI5yQh1YkqdHL_81qG9w/o.jpg",
    "alias": "breakfast_brunch",
    "title": "Breakfast & Brunch"
  },
  {
    "id": "l0qTrHzfkquC144PkJh4Rw",
    "name": "Merengue House Bar & Restaurant",
    "review_count": 35,
    "rating": 4.0,
    "price_range": "$$",
    "location": {
      "city": "Wilmington",
      "state": "DE"
    },
    "image_url": "https://s3-media4.fl.yelpcdn.com/bphoto/C-xjC4aLW11_EjwLa2gUtA/o.jpg",
    "alias": "caribbean",
    "title": "Caribbean"
  },
  {
    "id": "dQ6f069WFBTlSAuryc5qTg",
    "name": "Kaffeina Cafe",
    "review_count": 14,
    "rating": 5.0,
    "price_range": null,
    "location": {
      "city": "Wilmington",
      "state": "DE"
    },
    "image_url": "https://s3-media3.fl.yelpcdn.com/bphoto/wOs6CiZbuQyau5VIAPpIEg/o.jpg",
    "alias": "cafes",
    "title": "Cafes"
  },
  {
    "id": "CE4huEPSU8-7CRoxqcNfBA",
    "name": "Gianni's Pizza",
    "review_count": 51,
    "rating": 4.0,
    "price_range": null,
    "location": {
      "city": "Wilmington",
      "state": "DE"
    },
    "image_url": "https://s3-media3.fl.yelpcdn.com/bphoto/X91di23FKMTV2hpV437W9A/o.jpg",
    "alias": "salad",
    "title": "Salad"
  },
  {
    "id": "jpEhAUyitrgwDatsgeBgXg",
    "name": "Bangkok House Restaurant",
    "review_count": 84,
    "rating": 4.0,
    "price_range": "$$",
    "location": {
      "city": "Wilmington",
      "state": "DE"
    },
    "image_url": "https://s3-media2.fl.yelpcdn.com/bphoto/Y92M1xjtRseBX69hrU4ksw/o.jpg",
    "alias": "thai",
    "title": "Thai"
  },
  {
    "id": "2pDXWt8KnncH7FEHL25NvA",
    "name": "IL Granaio",
    "review_count": 599,
    "rating": 4.5,
    "price_range": "$$$",
    "location": {
      "city": "Glen Mills",
      "state": "PA"
    },
    "image_url": "https://s3-media4.fl.yelpcdn.com/bphoto/eC_FvotB7OH6ctpkAyia8w/o.jpg",
    "alias": "italian",
    "title": "Italian"
  },
  {
    "id": "7eZVo5b35dTiQxhhPBG-Lw",
    "name": "The Brandywine",
    "review_count": 11,
    "rating": 4.5,
    "price_range": null,
    "location": {
      "city": "Wilmington",
      "state": "DE"
    },
    "image_url": "https://s3-media4.fl.yelpcdn.com/bphoto/LnhFbOsi9a9WWtuA97TTzA/o.jpg",
    "alias": "steak",
    "title": "Steakhouses"
  },
  {
    "id": "Ds8E5RPjm2UHUemXJVTs3w",
    "name": "DECO",
    "review_count": 52,
    "rating": 4.0,
    "price_range": "$$",
    "location": {
      "city": "Wilmington",
      "state": "DE"
    },
    "image_url": "https://s3-media2.fl.yelpcdn.com/bphoto/eKU--sQJipapoc-85nWHyQ/o.jpg",
    "alias": "food_court",
    "title": "Food Court"
  },
  {
    "id": "tILA8ctsD_OZIcM2IfSyQA",
    "name": "Cafe SiTALY",
    "review_count": 213,
    "rating": 4.5,
    "price_range": "$$",
    "location": {
      "city": "Wilmington",
      "state": "DE"
    },
    "image_url": "https://s3-media4.fl.yelpcdn.com/bphoto/uS2MwuLOIT8depcGPCsbCg/o.jpg",
    "alias": "pizza",
    "title": "Pizza"
  },
  {
    "id": "_6BDxk8486ZYiRwpPmQewg",
    "name": "Limestone BBQ and Bourbon",
    "review_count": 226,
    "rating": 4.0,
    "price_range": "$$",
    "location": {
      "city": "Wilmington",
      "state": "DE"
    },
    "image_url": "https://s3-media3.fl.yelpcdn.com/bphoto/EViUBA7Cj2noej6OITmHEA/o.jpg",
    "alias": "bbq",
    "title": "Barbeque"
  },
  {
    "id": "9XzPqLGIkuN1rmqWH7aP9A",
    "name": "Legal Grounds Cafe",
    "review_count": 116,
    "rating": 5.0,
    "price_range": "$",
    "location": {
      "city": "Wilmington",
      "state": "DE"
    },
    "image_url": "https://s3-media1.fl.yelpcdn.com/bphoto/Pc7mkHZ634m4IwUepmHMbQ/o.jpg",
    "alias": "coffee",
    "title": "Coffee & Tea"
  },
  {
    "id": "Wy3s-xxiqZBg5Y1eSzI2DQ",
    "name": "Tex-Mex Burrito",
    "review_count": 43,
    "rating": 4.5,
    "price_range": null,
    "location": {
      "city": "Wilmington",
      "state": "DE"
    },
    "image_url": "https://s3-media1.fl.yelpcdn.com/bphoto/u2g30r3dxd9AhqLcM3Hukg/o.jpg",
    "alias": "tex-mex",
    "title": "Tex-Mex"
  },
  {
    "id": "YSJ2WaubNxMCnlNsZfIQbQ",
    "name": "Locale BBQ Post",
    "review_count": 63,
    "rating": 4.0,
    "price_range": "$$",
    "location": {
      "city": "Wilmington",
      "state": "DE"
    },
    "image_url": "https://s3-media3.fl.yelpcdn.com/bphoto/BTTrt6K6hyyFtMsjI1ktvw/o.jpg",
    "alias": "bbq",
    "title": "Barbeque"
  },
  {
    "id": "ZzpPd25Mh9An0BMOrF3zcw",
    "name": "Nemours Estate",
    "review_count": 50,
    "rating": 4.5,
    "price_range": null,
    "location": {
      "city": "Wilmington",
      "state": "DE"
    },
    "image_url": "https://s3-media2.fl.yelpcdn.com/bphoto/aWk5gNZmsE6Fo8J1wXyGQA/o.jpg",
    "alias": "landmarks",
    "title": "Landmarks & Historical Buildings"
  },
  {
    "id": "TPYRKrXsdUfOUQNFm6w_3w",
    "name": "Bellefonte Cafe",
    "review_count": 118,
    "rating": 4.0,
    "price_range": "$$",
    "location": {
      "city": "Wilmington",
      "state": "DE"
    },
    "image_url": "https://s3-media1.fl.yelpcdn.com/bphoto/7RDdY8omskgrWkVcg7injw/o.jpg",
    "alias": "tradamerican",
    "title": "American"
  },
  {
    "id": "h3DUMo4oWyVQ9ZfGar6vPg",
    "name": "Harry's Savoy Grill",
    "review_count": 269,
    "rating": 4.0,
    "price_range": "$$$",
    "location": {
      "city": "Wilmington",
      "state": "DE"
    },
    "image_url": "https://s3-media1.fl.yelpcdn.com/bphoto/Tu6LnMRIHBPEFIpDerr_lA/o.jpg",
    "alias": "tradamerican",
    "title": "American"
  },
  {
    "id": "GknuI5g4Jm4EkARtzN5pbg",
    "name": "Hummingbird To Mars",
    "review_count": 73,
    "rating": 4.0,
    "price_range": "$$",
    "location": {
      "city": "Wilmington",
      "state": "DE"
    },
    "image_url": "https://s3-media2.fl.yelpcdn.com/bphoto/PNrbHM5uI2Z7BaL227zuoA/o.jpg",
    "alias": "lounges",
    "title": "Lounges"
  },
  {
    "id": "sy7uEcDtctaeYqD7HGrPCg",
    "name": "Casablanca Moroccan Restaurant",
    "review_count": 127,
    "rating": 4.5,
    "price_range": "$$",
    "location": {
      "city": "New Castle",
      "state": "DE"
    },
    "image_url": "https://s3-media1.fl.yelpcdn.com/bphoto/NCaCyB63pIO1VJtxUjz64w/o.jpg",
    "alias": "mideastern",
    "title": "Middle Eastern"
  },
  {
    "id": "NzuiDTVc1KOBPb-ZJgG2WA",
    "name": "Yatz's Subs and Steaks",
    "review_count": 37,
    "rating": 4.5,
    "price_range": "$",
    "location": {
      "city": "Wilmington",
      "state": "DE"
    },
    "image_url": "https://s3-media1.fl.yelpcdn.com/bphoto/d4ebWmgPPJNWgWEfb6T6Ow/o.jpg",
    "alias": "sandwiches",
    "title": "Sandwiches"
  },
  {
    "id": "hFa7UxRZgJDQJ3UBhQsu9A",
    "name": "Piccolina Toscana",
    "review_count": 113,
    "rating": 3.5,
    "price_range": "$$",
    "location": {
      "city": "Wilmington",
      "state": "DE"
    },
    "image_url": "https://s3-media3.fl.yelpcdn.com/bphoto/DmsDu3dw08Ge-X_AD6oYEA/o.jpg",
    "alias": "italian",
    "title": "Italian"
  },
  {
    "id": "xAXX8gMTsT9jfpjvAIkhIw",
    "name": "Bardea Steak",
    "review_count": 49,
    "rating": 3.5,
    "price_range": null,
    "location": {
      "city": "Wilmington",
      "state": "DE"
    },
    "image_url": "https://s3-media2.fl.yelpcdn.com/bphoto/2hJ6t91nzJXhItxt9oVDpg/o.jpg",
    "alias": "steak",
    "title": "Steakhouses"
  },
  {
    "id": "yTVTy75PHthgHH1ZcGVbZg",
    "name": "Mrs. Robino's Restaurant",
    "review_count": 257,
    "rating": 3.5,
    "price_range": "$$",
    "location": {
      "city": "Wilmington",
      "state": "DE"
    },
    "image_url": "https://s3-media4.fl.yelpcdn.com/bphoto/Gq45R_F4gMOOPi0jmCACdA/o.jpg",
    "alias": "italian",
    "title": "Italian"
  },
  {
    "id": "jA3OYBnvaQerj2tbBqKo3Q",
    "name": "Urban Kitchen",
    "review_count": 87,
    "rating": 4.0,
    "price_range": "$$",
    "location": {
      "city": "Wilmington",
      "state": "DE"
    },
    "image_url": "https://s3-media3.fl.yelpcdn.com/bphoto/UD8cLyKq3OLM-pyP4A4jTw/o.jpg",
    "alias": "diners",
    "title": "Diners"
  },
  {
    "id": "FjgPNVFrbL924rNUMm8nBg",
    "name": "Jessop's Tavern",
    "review_count": 346,
    "rating": 4.0,
    "price_range": "$$",
    "location": {
      "city": "New Castle",
      "state": "DE"
    },
    "image_url": "https://s3-media3.fl.yelpcdn.com/bphoto/uQpiHD9K_4mA3aNylCmzuQ/o.jpg",
    "alias": "tradamerican",
    "title": "American"
  },
  {
    "id": "7Ld1DxAhSlGSateku0iqbg",
    "name": "Ristorante Attilio",
    "review_count": 62,
    "rating": 4.0,
    "price_range": "$$",
    "location": {
      "city": "Wilmington",
      "state": "DE"
    },
    "image_url": "https://s3-media2.fl.yelpcdn.com/bphoto/-bt2FzZhTcAX9-YmJPasPw/o.jpg",
    "alias": "italian",
    "title": "Italian"
  },
  {
    "id": "qzNMDrjffJGMa1TVgmdS0g",
    "name": "Nicely's Jamaican Kitchen",
    "review_count": 25,
    "rating": 4.5,
    "price_range": null,
    "location": {
      "city": "Wilmington",
      "state": "DE"
    },
    "image_url": "https://s3-media1.fl.yelpcdn.com/bphoto/ZAISmp_TEtbnaQ0NBc3Gsw/o.jpg",
    "alias": "caribbean",
    "title": "Caribbean"
  },
  {
    "id": "CFBnmxqAm4vX6v4BFye70w",
    "name": "Banks' Seafood Kitchen and Raw Bar",
    "review_count": 334,
    "rating": 3.5,
    "price_range": "$$$",
    "location": {
      "city": "Wilmington",
      "state": "DE"
    },
    "image_url": "https://s3-media4.fl.yelpcdn.com/bphoto/k6dYsyRVjnRp_RJ6XIio9Q/o.jpg",
    "alias": "seafood",
    "title": "Seafood"
  },
  {
    "id": "qMYCEl7r1K6WYmJglKaryA",
    "name": "Antica Italian Restaurant",
    "review_count": 333,
    "rating": 4.5,
    "price_range": "$$",
    "location": {
      "city": "Chadds Ford",
      "state": "PA"
    },
    "image_url": "https://s3-media1.fl.yelpcdn.com/bphoto/MeSSFexjdrzvjSc42QFlew/o.jpg",
    "alias": "italian",
    "title": "Italian"
  },
  {
    "id": "NMSj1uzIoG4q8NSJnVPIVQ",
    "name": "Sweet Somethings",
    "review_count": 116,
    "rating": 4.5,
    "price_range": "$$",
    "location": {
      "city": "Wilmington",
      "state": "DE"
    },
    "image_url": "https://s3-media2.fl.yelpcdn.com/bphoto/cVV9mBwNsC8irBgmCdExXQ/o.jpg",
    "alias": "bakeries",
    "title": "Bakeries"
  },
  {
    "id": "f5KbR9Ty05qgJvFbMm7fjA",
    "name": "The House of William and Merry",
    "review_count": 194,
    "rating": 4.5,
    "price_range": "$$$",
    "location": {
      "city": "Hockessin",
      "state": "DE"
    },
    "image_url": "https://s3-media2.fl.yelpcdn.com/bphoto/VwSB4mvkAANfnYZzlUwgZA/o.jpg",
    "alias": "newamerican",
    "title": "New American"
  },
  {
    "id": "NlkFNuYkreoPvrThNQEvbw",
    "name": "Docklands Riverfront",
    "review_count": 99,
    "rating": 3.5,
    "price_range": "$$",
    "location": {
      "city": "Wilmington",
      "state": "DE"
    },
    "image_url": "https://s3-media1.fl.yelpcdn.com/bphoto/yT9kNzf7aLX2wa0keREqFQ/o.jpg",
    "alias": "newamerican",
    "title": "New American"
  },
  {
    "id": "yFxxhrdtDfmNF4xcXeem8A",
    "name": "Takumi",
    "review_count": 230,
    "rating": 3.5,
    "price_range": "$$",
    "location": {
      "city": "Wilmington",
      "state": "DE"
    },
    "image_url": "https://s3-media2.fl.yelpcdn.com/bphoto/uCJSzWjHruP8-8ADOFmubg/o.jpg",
    "alias": "sushi",
    "title": "Sushi Bars"
  },
  {
    "id": "j7LZM6rf4Bf33exo6XXKGA",
    "name": "Drop Squad Kitchen",
    "review_count": 314,
    "rating": 4.0,
    "price_range": "$$",
    "location": {
      "city": "Wilmington",
      "state": "DE"
    },
    "image_url": "https://s3-media2.fl.yelpcdn.com/bphoto/YULFxovajgljDB5bC282-Q/o.jpg",
    "alias": "vegan",
    "title": "Vegan"
  },
  {
    "id": "ELgR35KIlpuTMeWi6tFP7g",
    "name": "Mikimotos",
    "review_count": 322,
    "rating": 3.5,
    "price_range": "$$",
    "location": {
      "city": "Wilmington",
      "state": "DE"
    },
    "image_url": "https://s3-media2.fl.yelpcdn.com/bphoto/hs_WCPl64xKQhcJWKMD_Gg/o.jpg",
    "alias": "japanese",
    "title": "Japanese"
  },
  {
    "id": "01ikDdFTvc2-YXeyv-YXjg",
    "name": "Two Stones Pub",
    "review_count": 184,
    "rating": 4.0,
    "price_range": "$$",
    "location": {
      "city": "Wilmington",
      "state": "DE"
    },
    "image_url": "https://s3-media1.fl.yelpcdn.com/bphoto/zVN410b5SeUgnZkUFIZmzQ/o.jpg",
    "alias": "newamerican",
    "title": "New American"
  },
  {
    "id": "_vpIEol9cEn3Y3KLpwbGkg",
    "name": "Chelsea Tavern",
    "review_count": 342,
    "rating": 3.5,
    "price_range": "$$",
    "location": {
      "city": "Wilmington",
      "state": "DE"
    },
    "image_url": "https://s3-media2.fl.yelpcdn.com/bphoto/qnFJ1ozARKdvLaGAFt6Hfw/o.jpg",
    "alias": "newamerican",
    "title": "New American"
  },
  {
    "id": "wP7CPKf6K1uC2VNXQ_HrOA",
    "name": "Delaware Art Museum",
    "review_count": 33,
    "rating": 4.5,
    "price_range": null,
    "location": {
      "city": "Wilmington",
      "state": "DE"
    },
    "image_url": "https://s3-media1.fl.yelpcdn.com/bphoto/ZsUjNilfp96la5S1dJFivw/o.jpg",
    "alias": "artmuseums",
    "title": "Art Museums"
  },
  {
    "id": "BnbHihkBM50Xq-uBy5bpcg",
    "name": "Cajun Kate's Philly Pike",
    "review_count": 86,
    "rating": 4.5,
    "price_range": "$$",
    "location": {
      "city": "Wilmington",
      "state": "DE"
    },
    "image_url": "https://s3-media4.fl.yelpcdn.com/bphoto/yEmkzbr77Vimd30K3b3VbA/o.jpg",
    "alias": "cajun",
    "title": "Cajun/Creole"
  },
  {
    "id": "DhJutS3MDVKA1ZHbxkbD3Q",
    "name": "The Quoin Restaurant",
    "review_count": 30,
    "rating": 4.0,
    "price_range": null,
    "location": {
      "city": "Wilmington",
      "state": "DE"
    },
    "image_url": "https://s3-media1.fl.yelpcdn.com/bphoto/TWXt8PBSwY8TXs6H60Y95g/o.jpg",
    "alias": "italian",
    "title": "Italian"
  },
  {
    "id": "hJvw6uua0KFIfBF44Hf2Eg",
    "name": "Cafe Pomodoro",
    "review_count": 45,
    "rating": 4.5,
    "price_range": null,
    "location": {
      "city": "Wilmington",
      "state": "DE"
    },
    "image_url": "https://s3-media2.fl.yelpcdn.com/bphoto/85RDBeglQWQao7smfJZThA/o.jpg",
    "alias": "sicilian",
    "title": "Sicilian"
  },
  {
    "id": "YvkadIJ-G9OPpnCOSW2ISg",
    "name": "Le Shio",
    "review_count": 235,
    "rating": 3.5,
    "price_range": "$$",
    "location": {
      "city": "Wilmington",
      "state": "DE"
    },
    "image_url": "https://s3-media3.fl.yelpcdn.com/bphoto/ZF_25l9X7vqCBuNpN5UORw/o.jpg",
    "alias": "asianfusion",
    "title": "Asian Fusion"
  },
  {
    "id": "d5v_8M8GvchETbkr3WUH3Q",
    "name": "Oddity Bar",
    "review_count": 30,
    "rating": 4.5,
    "price_range": "$$",
    "location": {
      "city": "Wilmington",
      "state": "DE"
    },
    "image_url": "https://s3-media3.fl.yelpcdn.com/bphoto/KSc96F2sd-yZiFnBzTVxyg/o.jpg",
    "alias": "bars",
    "title": "Bars"
  },
  {
    "id": "4EffIBpRHXJP0mNZeRAYvA",
    "name": "Pinji's Cafe",
    "review_count": 45,
    "rating": 4.5,
    "price_range": "$",
    "location": {
      "city": "Wilmington",
      "state": "DE"
    },
    "image_url": "https://s3-media2.fl.yelpcdn.com/bphoto/NBh_mFU3MyA_wU8rkU24tQ/o.jpg",
    "alias": "cafes",
    "title": "Cafes"
  },
  {
    "id": "nNKZXzq3kT71E6R3JX9RPg",
    "name": "Grotto Pizza - Pennsylvania Avenue",
    "review_count": 77,
    "rating": 3.0,
    "price_range": "$$",
    "location": {
      "city": "Wilmington",
      "state": "DE"
    },
    "image_url": "https://s3-media1.fl.yelpcdn.com/bphoto/rptTN8ZnDvx_GYBPK2eOUA/o.jpg",
    "alias": "pizza",
    "title": "Pizza"
  },
  {
    "id": "lwJllJ5e4CLHdliOPEfgGg",
    "name": "Rice Restaurant",
    "review_count": 166,
    "rating": 4.0,
    "price_range": "$$",
    "location": {
      "city": "Wilmington",
      "state": "DE"
    },
    "image_url": "https://s3-media1.fl.yelpcdn.com/bphoto/IwclimAqEJHWEl-obH6vqw/o.jpg",
    "alias": "japanese",
    "title": "Japanese"
  },
  {
    "id": "z9i9Tym7T64lMDg70Ii9hw",
    "name": "Stoney's British Pub",
    "review_count": 122,
    "rating": 4.0,
    "price_range": "$$",
    "location": {
      "city": "Wilmington",
      "state": "DE"
    },
    "image_url": "https://s3-media2.fl.yelpcdn.com/bphoto/GG005GgByYPm4u0Em1YvVg/o.jpg",
    "alias": "pubs",
    "title": "Pubs"
  },
  {
    "id": "O1XwKgUYNI_YBXnOqgaTaw",
    "name": "Talula's Table",
    "review_count": 193,
    "rating": 4.5,
    "price_range": "$$$$",
    "location": {
      "city": "Kennett Square",
      "state": "PA"
    },
    "image_url": "https://s3-media3.fl.yelpcdn.com/bphoto/yTMTDWxErISI2tS5EHkJcg/o.jpg",
    "alias": "newamerican",
    "title": "New American"
  },
  {
    "id": "KHc8QV64GnhjeIMYOFy7_w",
    "name": "The Sikar Cigar Lounge",
    "review_count": 36,
    "rating": 4.5,
    "price_range": "$$",
    "location": {
      "city": "Wilmington",
      "state": "DE"
    },
    "image_url": "https://s3-media1.fl.yelpcdn.com/bphoto/jhgPjGQuPo__CrdOWcUCgg/o.jpg",
    "alias": "lounges",
    "title": "Lounges"
  },
  {
    "id": "DBMesx4TgOFLe2kLVu24Yw",
    "name": "Portabello's Restaurant",
    "review_count": 228,
    "rating": 4.5,
    "price_range": "$$$",
    "location": {
      "city": "Kennett Square",
      "state": "PA"
    },
    "image_url": "https://s3-media1.fl.yelpcdn.com/bphoto/pL66XrzyE5d8tn5YDXUfnA/o.jpg",
    "alias": "italian",
    "title": "Italian"
  },
  {
    "id": "qJcmu67ZEQ4bd1m9Kh_T1w",
    "name": "Kalbi Asian Bistro",
    "review_count": 135,
    "rating": 4.0,
    "price_range": "$$",
    "location": {
      "city": "Wilmington",
      "state": "DE"
    },
    "image_url": "https://s3-media1.fl.yelpcdn.com/bphoto/wSen0rJ6pO4yWTLBcQx5aQ/o.jpg",
    "alias": "korean",
    "title": "Korean"
  },
  {
    "id": "xHWi7ZQ0zlRoKWlfnmhOYA",
    "name": "Feby's Fishery",
    "review_count": 175,
    "rating": 3.5,
    "price_range": "$$$",
    "location": {
      "city": "Wilmington",
      "state": "DE"
    },
    "image_url": "https://s3-media1.fl.yelpcdn.com/bphoto/4Lz5CoqBzRYwCiYVGuTRnQ/o.jpg",
    "alias": "seafood",
    "title": "Seafood"
  },
  {
    "id": "qOFcDjpUw5oeV7LIdDAubg",
    "name": "Green Box Kitchen",
    "review_count": 31,
    "rating": 5.0,
    "price_range": null,
    "location": {
      "city": "Wilmington",
      "state": "DE"
    },
    "image_url": "https://s3-media1.fl.yelpcdn.com/bphoto/AG7XIOaEJmwIe2AnSJIaLQ/o.jpg",
    "alias": "vegan",
    "title": "Vegan"
  },
  {
    "id": "K0Cw8KXgF23sEji9TnfBkA",
    "name": "Le Cavalier At The Green Room",
    "review_count": 82,
    "rating": 3.5,
    "price_range": null,
    "location": {
      "city": "Wilmington",
      "state": "DE"
    },
    "image_url": "https://s3-media1.fl.yelpcdn.com/bphoto/ovDB1S18Ae2mnKbyDGIvfA/o.jpg",
    "alias": "french",
    "title": "French"
  },
  {
    "id": "okdrZUqb1VD_C-5EYj40Bw",
    "name": "Ramen Kumamoto",
    "review_count": 555,
    "rating": 4.5,
    "price_range": "$$",
    "location": {
      "city": "Newark",
      "state": "DE"
    },
    "image_url": "https://s3-media1.fl.yelpcdn.com/bphoto/yDvUtC7tp0pgL0PuLhghGg/o.jpg",
    "alias": "ramen",
    "title": "Ramen"
  },
  {
    "id": "qUwGjZGZLJD1tzoFbRR1DQ",
    "name": "Scout Cafe",
    "review_count": 24,
    "rating": 4.5,
    "price_range": "$$",
    "location": {
      "city": "Wilmington",
      "state": "DE"
    },
    "image_url": "https://s3-media1.fl.yelpcdn.com/bphoto/ua4ndyz1hPowW52MwU_Gxw/o.jpg",
    "alias": "coffee",
    "title": "Coffee & Tea"
  },
  {
    "id": "n7XtDJQVnxb1UzPPzlOlHQ",
    "name": "El Diablo Burritos",
    "review_count": 204,
    "rating": 4.5,
    "price_range": "$$",
    "location": {
      "city": "Wilmington",
      "state": "DE"
    },
    "image_url": "https://s3-media1.fl.yelpcdn.com/bphoto/NPWjwDj148dIME-8X3clJQ/o.jpg",
    "alias": "tex-mex",
    "title": "Tex-Mex"
  },
  {
    "id": "T7pfUqFPaxJWLquFePSLcw",
    "name": "Catherine Rooney's",
    "review_count": 89,
    "rating": 3.0,
    "price_range": "$$",
    "location": {
      "city": "Wilmington",
      "state": "DE"
    },
    "image_url": "https://s3-media4.fl.yelpcdn.com/bphoto/L8kxkzvCD6mOkwthv33jow/o.jpg",
    "alias": "irish",
    "title": "Irish"
  },
  {
    "id": "_-OXe_vQnPRZp7-JBqXmbA",
    "name": "India Palace Indian Restaurant",
    "review_count": 98,
    "rating": 4.5,
    "price_range": "$$",
    "location": {
      "city": "Wilmington",
      "state": "DE"
    },
    "image_url": "https://s3-media1.fl.yelpcdn.com/bphoto/Trhz74CDvBp193g2QnghJw/o.jpg",
    "alias": "indpak",
    "title": "Indian"
  },
  {
    "id": "cVWOVdiHpPRzuS2FSQUgfA",
    "name": "Omka Grill & Sushi",
    "review_count": 23,
    "rating": 4.5,
    "price_range": null,
    "location": {
      "city": "Elsmere",
      "state": "DE"
    },
    "image_url": "https://s3-media3.fl.yelpcdn.com/bphoto/rsM6_QgjdGy6dCn_t_xxpw/o.jpg",
    "alias": "sushi",
    "title": "Sushi Bars"
  },
  {
    "id": "d_UJWp4IlGS4sgnjE60eBw",
    "name": "Longwood Gardens",
    "review_count": 914,
    "rating": 4.5,
    "price_range": "$$",
    "location": {
      "city": "Kennett Square",
      "state": "PA"
    },
    "image_url": "https://s3-media1.fl.yelpcdn.com/bphoto/z8pFLUhZL5i7fVOAUasX7Q/o.jpg",
    "alias": "gardens",
    "title": "Botanical Gardens"
  },
  {
    "id": "9tXwyr5Yqu4WnuCLOUPtrQ",
    "name": "Taco Grande",
    "review_count": 96,
    "rating": 3.0,
    "price_range": "$$",
    "location": {
      "city": "Wilmington",
      "state": "DE"
    },
    "image_url": "https://s3-media2.fl.yelpcdn.com/bphoto/M-TVih6h9K13OFSrkSYfdw/o.jpg",
    "alias": "tacos",
    "title": "Tacos"
  },
  {
    "id": "gkZ6iiEfnO7I2UzOHbkzrA",
    "name": "Ulysses American Gastro Pub",
    "review_count": 294,
    "rating": 3.5,
    "price_range": "$$",
    "location": {
      "city": "Wilmington",
      "state": "DE"
    },
    "image_url": "https://s3-media1.fl.yelpcdn.com/bphoto/liUllYpCKbtyZamiW4_Njw/o.jpg",
    "alias": "gastropubs",
    "title": "Gastropubs"
  },
  {
    "id": "Ct_g_xmNh1wvpfTD-QLI8Q",
    "name": "vPho",
    "review_count": 271,
    "rating": 4.5,
    "price_range": "$$",
    "location": {
      "city": "Newark",
      "state": "DE"
    },
    "image_url": "https://s3-media1.fl.yelpcdn.com/bphoto/KqG98NwmOnryefEDFw-ExQ/o.jpg",
    "alias": "vietnamese",
    "title": "Vietnamese"
  },
  {
    "id": "nxkfjZFzEx-C6XhW51YcfQ",
    "name": "kaff\u00e9 KARMA",
    "review_count": 29,
    "rating": 4.5,
    "price_range": null,
    "location": {
      "city": "Wilmington",
      "state": "DE"
    },
    "image_url": "https://s3-media2.fl.yelpcdn.com/bphoto/_bIZe23xH0VR4xirjMTraQ/o.jpg",
    "alias": "coffee",
    "title": "Coffee & Tea"
  },
  {
    "id": "T0MvxzVMMczJ_Eips6XGaQ",
    "name": "Harvest Seasonal Grill - Glen Mills",
    "review_count": 572,
    "rating": 4.0,
    "price_range": "$$",
    "location": {
      "city": "Glen Mills",
      "state": "PA"
    },
    "image_url": "https://s3-media2.fl.yelpcdn.com/bphoto/zLXSlc8qLiBymW-i5dJPlg/o.jpg",
    "alias": "newamerican",
    "title": "New American"
  },
  {
    "id": "07-NiYGNKmWnKGh9IDBoYQ",
    "name": "Faire Market & Cafe",
    "review_count": 20,
    "rating": 4.5,
    "price_range": null,
    "location": {
      "city": "Wilmington",
      "state": "DE"
    },
    "image_url": "https://s3-media3.fl.yelpcdn.com/bphoto/LSlWGCilGXADbDfx7xF9xg/o.jpg",
    "alias": "coffee",
    "title": "Coffee & Tea"
  },
  {
    "id": "ynAOBtqwYT9U4Jg79etHbg",
    "name": "Ravanesi Pizzeria Napoletana",
    "review_count": 274,
    "rating": 4.5,
    "price_range": "$$",
    "location": {
      "city": "Glen Mills",
      "state": "PA"
    },
    "image_url": "https://s3-media3.fl.yelpcdn.com/bphoto/Pgp9tnFE0EMVVtG9hGmHMg/o.jpg",
    "alias": "pizza",
    "title": "Pizza"
  },
  {
    "id": "qCVbvgYjJkdsrSN71Ra0Ew",
    "name": "The Crow Bar",
    "review_count": 36,
    "rating": 3.5,
    "price_range": null,
    "location": {
      "city": "Wilmington",
      "state": "DE"
    },
    "image_url": "https://s3-media4.fl.yelpcdn.com/bphoto/3NEHAfTGqDz6zYfPRuMOcQ/o.jpg",
    "alias": "chicken_wings",
    "title": "Chicken Wings"
  },
  {
    "id": "o8JeOB8HTa5HYHg6hfqTHw",
    "name": "Walt's Chicken Express",
    "review_count": 60,
    "rating": 4.0,
    "price_range": "$",
    "location": {
      "city": "Wilmington",
      "state": "DE"
    },
    "image_url": "https://s3-media1.fl.yelpcdn.com/bphoto/0nASlnwYf9X0t_ctc5iBvw/o.jpg",
    "alias": "soulfood",
    "title": "Soul Food"
  },
  {
    "id": "Vo4NZBtF3mr6EJitNnq-Wg",
    "name": "Pizzeria Maki",
    "review_count": 34,
    "rating": 4.5,
    "price_range": null,
    "location": {
      "city": "Greenville",
      "state": "DE"
    },
    "image_url": "https://s3-media2.fl.yelpcdn.com/bphoto/ArFMvP7Bmw7u1hNUTQzikQ/o.jpg",
    "alias": "sushi",
    "title": "Sushi Bars"
  },
  {
    "id": "5IFqqWJTaPNoY2ZgRlX73w",
    "name": "Cafe Verdi Restaurant",
    "review_count": 62,
    "rating": 3.5,
    "price_range": "$$",
    "location": {
      "city": "Wilmington",
      "state": "DE"
    },
    "image_url": "https://s3-media3.fl.yelpcdn.com/bphoto/-2vdcO_E8PTda9UhPl8Org/o.jpg",
    "alias": "pizza",
    "title": "Pizza"
  },
  {
    "id": "iWyYWFXrOvyoxIvUPf8OuA",
    "name": "Opa Opa",
    "review_count": 148,
    "rating": 4.0,
    "price_range": "$$",
    "location": {
      "city": "Wilmington",
      "state": "DE"
    },
    "image_url": "https://s3-media2.fl.yelpcdn.com/bphoto/_N09N-0_fk4oFzTq9mJXyg/o.jpg",
    "alias": "greek",
    "title": "Greek"
  },
  {
    "id": "LTrnGRLW1ZZIMAfCXRt3Tg",
    "name": "Hagley Museum & Library",
    "review_count": 39,
    "rating": 4.5,
    "price_range": null,
    "location": {
      "city": "Wilmington",
      "state": "DE"
    },
    "image_url": "https://s3-media2.fl.yelpcdn.com/bphoto/yw7njBE0Ho6ZcpuPFP_UuQ/o.jpg",
    "alias": "museums",
    "title": "Museums"
  },
  {
    "id": "5cvVmZYhYr1P0ot0ed2lJQ",
    "name": "Riverfront Bakery",
    "review_count": 68,
    "rating": 4.0,
    "price_range": "$",
    "location": {
      "city": "Wilmington",
      "state": "DE"
    },
    "image_url": "https://s3-media2.fl.yelpcdn.com/bphoto/PqgTecxUnGI-m0ma-W8bdg/o.jpg",
    "alias": "bakeries",
    "title": "Bakeries"
  },
  {
    "id": "Tr-8_aJ7VgywoRk3sMC4Ww",
    "name": "Ioannoni's Bullroasters",
    "review_count": 242,
    "rating": 4.5,
    "price_range": "$$",
    "location": {
      "city": "New Castle",
      "state": "DE"
    },
    "image_url": "https://s3-media4.fl.yelpcdn.com/bphoto/SfOAyMGtm1SfifmNSvJd4A/o.jpg",
    "alias": "sandwiches",
    "title": "Sandwiches"
  },
  {
    "id": "2UPOe4CTsy57JyBWCjNWbQ",
    "name": "The Reef Seafood & Steak Restaurant",
    "review_count": 165,
    "rating": 3.5,
    "price_range": "$$",
    "location": {
      "city": "Wilmington",
      "state": "DE"
    },
    "image_url": "https://s3-media4.fl.yelpcdn.com/bphoto/NYiwZDBBOogUcBIRHAkoBA/o.jpg",
    "alias": "steak",
    "title": "Steakhouses"
  },
  {
    "id": "ujUb29BOYcUyhMcnqo4bWA",
    "name": "Two Stones Pub",
    "review_count": 400,
    "rating": 4.0,
    "price_range": "$$",
    "location": {
      "city": "Newark",
      "state": "DE"
    },
    "image_url": "https://s3-media3.fl.yelpcdn.com/bphoto/ei1OE8nHrBIuwAfMHJqRKA/o.jpg",
    "alias": "gastropubs",
    "title": "Gastropubs"
  },
  {
    "id": "L-vZQuTZFNqjRdXdUnlurQ",
    "name": "El Camino Mexican Kitchen",
    "review_count": 136,
    "rating": 3.5,
    "price_range": "$$",
    "location": {
      "city": "Wilmington",
      "state": "DE"
    },
    "image_url": "https://s3-media4.fl.yelpcdn.com/bphoto/9CBvPJtNWXGniGFrxmaMaw/o.jpg",
    "alias": "mexican",
    "title": "Mexican"
  },
  {
    "id": "VbzoVWEPSfzaIGBq4KlVwQ",
    "name": "Soybean Asian Grille",
    "review_count": 200,
    "rating": 4.5,
    "price_range": "$$",
    "location": {
      "city": "Wilmington",
      "state": "DE"
    },
    "image_url": "https://s3-media2.fl.yelpcdn.com/bphoto/2AwCGafRLzmareYX9V5Iog/o.jpg",
    "alias": "thai",
    "title": "Thai"
  },
  {
    "id": "CvhOKuu-uUDJRj-7mcbbvw",
    "name": "Sovana Bistro",
    "review_count": 318,
    "rating": 4.0,
    "price_range": "$$$",
    "location": {
      "city": "Kennett Square",
      "state": "PA"
    },
    "image_url": "https://s3-media2.fl.yelpcdn.com/bphoto/_0qB0fq74wLxWckRADmMHA/o.jpg",
    "alias": "mediterranean",
    "title": "Mediterranean"
  },
  {
    "id": "5QPZY59iu3a0C-jWsZR8ow",
    "name": "Charcoal Pit",
    "review_count": 244,
    "rating": 3.0,
    "price_range": "$$",
    "location": {
      "city": "Wilmington",
      "state": "DE"
    },
    "image_url": "https://s3-media2.fl.yelpcdn.com/bphoto/EyjY3k4U8RUUNKOukcOyQw/o.jpg",
    "alias": "burgers",
    "title": "Burgers"
  },
  {
    "id": "PADyvVwZoY8waIraBOrN7g",
    "name": "Johnnie's Dog House & Chicken Shack",
    "review_count": 165,
    "rating": 4.0,
    "price_range": "$",
    "location": {
      "city": "Wilmington",
      "state": "DE"
    },
    "image_url": "https://s3-media1.fl.yelpcdn.com/bphoto/iI-CSV3r5k9pCHBB2oLrvQ/o.jpg",
    "alias": "burgers",
    "title": "Burgers"
  },
  {
    "id": "cemvFp_hGI_6ev5_pd9Lew",
    "name": "Tony and Dominick's Pizza",
    "review_count": 54,
    "rating": 4.5,
    "price_range": "$$",
    "location": {
      "city": "Wilmington",
      "state": "DE"
    },
    "image_url": "https://s3-media2.fl.yelpcdn.com/bphoto/JIkir-xu5oGgBCGc6ojarA/o.jpg",
    "alias": "pizza",
    "title": "Pizza"
  },
  {
    "id": "XmlF_2NbH65tDiSd2u2M5A",
    "name": "Gyro Kabob House",
    "review_count": 297,
    "rating": 4.5,
    "price_range": "$",
    "location": {
      "city": "Newark",
      "state": "DE"
    },
    "image_url": "https://s3-media2.fl.yelpcdn.com/bphoto/7kOwUHKa22UcLPFsXTnpvg/o.jpg",
    "alias": "mideastern",
    "title": "Middle Eastern"
  },
  {
    "id": "mXrHjW4szmq6geNx4TYF3Q",
    "name": "Ali Baba",
    "review_count": 306,
    "rating": 4.5,
    "price_range": "$$",
    "location": {
      "city": "Newark",
      "state": "DE"
    },
    "image_url": "https://s3-media1.fl.yelpcdn.com/bphoto/iDK6scSPQMhjTc5WNE0QMw/o.jpg",
    "alias": "mediterranean",
    "title": "Mediterranean"
  },
  {
    "id": "Vuk7qcu6Kvd8sT2s7FoH0A",
    "name": "2sp Taphouse & Grill",
    "review_count": 39,
    "rating": 4.5,
    "price_range": "$$",
    "location": {
      "city": "Chadds Ford",
      "state": "PA"
    },
    "image_url": "https://s3-media2.fl.yelpcdn.com/bphoto/He9wXDcAbLH5rrVMK0vAjw/o.jpg",
    "alias": "gastropubs",
    "title": "Gastropubs"
  },
  {
    "id": "iCfB58Cvb_rw_SDAgPXLfA",
    "name": "Russell's Quality Food",
    "review_count": 114,
    "rating": 4.5,
    "price_range": "$",
    "location": {
      "city": "Wilmington",
      "state": "DE"
    },
    "image_url": "https://s3-media3.fl.yelpcdn.com/bphoto/4axSw5Uyy-q0EDMyRVzwNg/o.jpg",
    "alias": "bbq",
    "title": "Barbeque"
  },
  {
    "id": "VcMLfnalYXBKXiL6sGGB5g",
    "name": "Taverna",
    "review_count": 303,
    "rating": 4.0,
    "price_range": "$$",
    "location": {
      "city": "Newark",
      "state": "DE"
    },
    "image_url": "https://s3-media2.fl.yelpcdn.com/bphoto/iavNLhBtfGuA7BlHPuEcng/o.jpg",
    "alias": "italian",
    "title": "Italian"
  },
  {
    "id": "b_kdsa34HS5ZtjtDSIcz1Q",
    "name": "The Mercury Cafe And Teahouse",
    "review_count": 46,
    "rating": 5.0,
    "price_range": "$$",
    "location": {
      "city": "New Castle",
      "state": "DE"
    },
    "image_url": "https://s3-media2.fl.yelpcdn.com/bphoto/kF2Jqw0zs2879fRhlgjYbQ/o.jpg",
    "alias": "vegetarian",
    "title": "Vegetarian"
  },
  {
    "id": "kBJ0tVGtF8x4L_DRQiPwUw",
    "name": "Two Stones Pub",
    "review_count": 259,
    "rating": 4.0,
    "price_range": "$$",
    "location": {
      "city": "Kennett Square",
      "state": "PA"
    },
    "image_url": "https://s3-media3.fl.yelpcdn.com/bphoto/F1rc-Z6HCD_LSUCsMWoIpg/o.jpg",
    "alias": "pubs",
    "title": "Pubs"
  },
  {
    "id": "d2LaR_woXuKzhe7Sw7MFWA",
    "name": "Liquid Alchemy Beverages",
    "review_count": 39,
    "rating": 4.5,
    "price_range": "$$",
    "location": {
      "city": "Wilmington",
      "state": "DE"
    },
    "image_url": "https://s3-media1.fl.yelpcdn.com/bphoto/nyKn35raOH0-_yR3z0NvVQ/o.jpg",
    "alias": "winetours",
    "title": "Wine Tours"
  },
  {
    "id": "CLUKvU_lTOcCQi6_24lzOg",
    "name": "Bonefish Grill",
    "review_count": 167,
    "rating": 3.5,
    "price_range": "$$",
    "location": {
      "city": "Wilmington",
      "state": "DE"
    },
    "image_url": "https://s3-media3.fl.yelpcdn.com/bphoto/WX7V3X-79QYqFUrL-47EnQ/o.jpg",
    "alias": "seafood",
    "title": "Seafood"
  },
  {
    "id": "FiQtALz4rxB-vCiq7ytrSw",
    "name": "Just To Serve You, DE",
    "review_count": 77,
    "rating": 3.5,
    "price_range": "$$",
    "location": {
      "city": "Wilmington",
      "state": "DE"
    },
    "image_url": "https://s3-media3.fl.yelpcdn.com/bphoto/gUQ0egD-UZk-pYIgowKcww/o.jpg",
    "alias": "soulfood",
    "title": "Soul Food"
  },
  {
    "id": "IZMHmGH1NbULyreLPx3t9A",
    "name": "River Rock Kitchen",
    "review_count": 61,
    "rating": 3.5,
    "price_range": "$$",
    "location": {
      "city": "Wilmington",
      "state": "DE"
    },
    "image_url": "https://s3-media4.fl.yelpcdn.com/bphoto/DJo9BA440r6MMpXw9LrMxQ/o.jpg",
    "alias": "newamerican",
    "title": "New American"
  },
  {
    "id": "f3qKagX8q2lnz1O6Ulck7w",
    "name": "PureBread Deli",
    "review_count": 65,
    "rating": 4.0,
    "price_range": "$$",
    "location": {
      "city": "Wilmington",
      "state": "DE"
    },
    "image_url": "https://s3-media2.fl.yelpcdn.com/bphoto/cs8W97SQBJUQaGVqgDLsHQ/o.jpg",
    "alias": "delis",
    "title": "Delis"
  },
  {
    "id": "5-uI2a8avO4QtM7l4UHeNg",
    "name": "Brew HaHa!",
    "review_count": 102,
    "rating": 4.0,
    "price_range": "$",
    "location": {
      "city": "Wilmington",
      "state": "DE"
    },
    "image_url": "https://s3-media2.fl.yelpcdn.com/bphoto/bkWP5lFqrC77bbXQSBRHbA/o.jpg",
    "alias": "coffee",
    "title": "Coffee & Tea"
  },
  {
    "id": "UEVl8J0a_lyG0_RTN_Wlsw",
    "name": "Ole Tapas Lounge & Restaurant",
    "review_count": 262,
    "rating": 4.0,
    "price_range": "$$",
    "location": {
      "city": "Newark",
      "state": "DE"
    },
    "image_url": "https://s3-media4.fl.yelpcdn.com/bphoto/rynAGfYQMxfVMTROIUlfmA/o.jpg",
    "alias": "spanish",
    "title": "Spanish"
  },
  {
    "id": "-jtTmbqX3jeMs4z693SO4w",
    "name": "V&M Bistro",
    "review_count": 116,
    "rating": 3.5,
    "price_range": "$$",
    "location": {
      "city": "Wilmington",
      "state": "DE"
    },
    "image_url": "https://s3-media1.fl.yelpcdn.com/bphoto/LzDaiC6Do49BLSjGi6HMUQ/o.jpg",
    "alias": "cocktailbars",
    "title": "Cocktail Bars"
  },
  {
    "id": "luUGLqA3Gxv5raCJOAzblw",
    "name": "Firebirds Wood Fired Grill",
    "review_count": 523,
    "rating": 4.0,
    "price_range": "$$$",
    "location": {
      "city": "Newark",
      "state": "DE"
    },
    "image_url": "https://s3-media2.fl.yelpcdn.com/bphoto/hel-kiDvTheQY3xGbImECg/o.jpg",
    "alias": "steak",
    "title": "Steakhouses"
  },
  {
    "id": "0HzjYHjeL5GvGHMj9XjO5A",
    "name": "El Toro",
    "review_count": 65,
    "rating": 4.0,
    "price_range": "$",
    "location": {
      "city": "Wilmington",
      "state": "DE"
    },
    "image_url": "https://s3-media2.fl.yelpcdn.com/bphoto/oJrOFFgXVfAl3OBQk-ymfA/o.jpg",
    "alias": "mexican",
    "title": "Mexican"
  },
  {
    "id": "u6J-aO61VRmS7NKeBzrSjQ",
    "name": "Buckley's Tavern",
    "review_count": 286,
    "rating": 3.5,
    "price_range": "$$",
    "location": {
      "city": "Wilmington",
      "state": "DE"
    },
    "image_url": "https://s3-media1.fl.yelpcdn.com/bphoto/WH6rLRsP1vP7YonYbwKZ7w/o.jpg",
    "alias": "pubs",
    "title": "Pubs"
  },
  {
    "id": "vR7Q2vL5H2CeUMOpaHM_xg",
    "name": "Delaware Burger Battle",
    "review_count": 7,
    "rating": 5.0,
    "price_range": "$$$",
    "location": {
      "city": "Wilmington",
      "state": "DE"
    },
    "image_url": "https://s3-media2.fl.yelpcdn.com/bphoto/QJVFPCVxlf7bdBcAkw67dw/o.jpg",
    "alias": "festivals",
    "title": "Festivals"
  },
  {
    "id": "ha45bMFEaZLjBYZUN9Subw",
    "name": "The Chancery Market Food Hall",
    "review_count": 13,
    "rating": 4.0,
    "price_range": "$$",
    "location": {
      "city": "Wilmington",
      "state": "DE"
    },
    "image_url": "https://s3-media2.fl.yelpcdn.com/bphoto/dZejtg6zxEyXzaxmT2zdQg/o.jpg",
    "alias": "food",
    "title": "Food"
  },
  {
    "id": "TUU1mt51yasYH0QYwzKTEg",
    "name": "Pachamama Rotisserie Chicken",
    "review_count": 72,
    "rating": 4.0,
    "price_range": null,
    "location": {
      "city": "wilmington",
      "state": "DE"
    },
    "image_url": "https://s3-media2.fl.yelpcdn.com/bphoto/lpbgLYy9ljLgMskln6LBdA/o.jpg",
    "alias": "peruvian",
    "title": "Peruvian"
  },
  {
    "id": "S1YtjvdWXtgWXbgN1ZEy8g",
    "name": "The Naked Olive",
    "review_count": 146,
    "rating": 4.5,
    "price_range": null,
    "location": {
      "city": "Kennett Square",
      "state": "PA"
    },
    "image_url": "https://s3-media3.fl.yelpcdn.com/bphoto/-6vQQ7PnxqpyRELdzX3IGA/o.jpg",
    "alias": "mediterranean",
    "title": "Mediterranean"
  },
  {
    "id": "YCLI8aFvdM3uUE-MgrPJZQ",
    "name": "Newport Family Restaurant",
    "review_count": 63,
    "rating": 4.0,
    "price_range": "$",
    "location": {
      "city": "Wilmington",
      "state": "DE"
    },
    "image_url": "https://s3-media3.fl.yelpcdn.com/bphoto/GmF-zmZSCdFoWU_vcSFrkg/o.jpg",
    "alias": "tradamerican",
    "title": "American"
  },
  {
    "id": "yK8LWJ4VRTYEoGxVYzcjQg",
    "name": "Metro Diner",
    "review_count": 485,
    "rating": 4.0,
    "price_range": "$$",
    "location": {
      "city": "Newark",
      "state": "DE"
    },
    "image_url": "https://s3-media2.fl.yelpcdn.com/bphoto/55tRweWHz_vn2uAHrjM5Tw/o.jpg",
    "alias": "diners",
    "title": "Diners"
  },
  {
    "id": "UBX73ZWgCdgom4nv0UeGvg",
    "name": "Border Cafe",
    "review_count": 889,
    "rating": 4.0,
    "price_range": "$$",
    "location": {
      "city": "Newark",
      "state": "DE"
    },
    "image_url": "https://s3-media2.fl.yelpcdn.com/bphoto/0zQisJJE5HP9SVnVEr9UUg/o.jpg",
    "alias": "cajun",
    "title": "Cajun/Creole"
  },
  {
    "id": "TqDErLK4t0TfSiFzxuocuQ",
    "name": "Casapulla's North Steak & Sub Shop",
    "review_count": 64,
    "rating": 4.0,
    "price_range": "$",
    "location": {
      "city": "Wilmington",
      "state": "DE"
    },
    "image_url": "https://s3-media2.fl.yelpcdn.com/bphoto/vn9gmfyenf037qs4wznF3Q/o.jpg",
    "alias": "delis",
    "title": "Delis"
  },
  {
    "id": "q9AIbLUvAEnkYzg_H1KrPA",
    "name": "Byrsa Bistro - Glen Mills",
    "review_count": 181,
    "rating": 4.0,
    "price_range": "$$$",
    "location": {
      "city": "Glen Mills",
      "state": "PA"
    },
    "image_url": "https://s3-media3.fl.yelpcdn.com/bphoto/UDFt0SV7F8YGzQYCCSDm4w/o.jpg",
    "alias": "mediterranean",
    "title": "Mediterranean"
  },
  {
    "id": "dISs1oH_xeNAOOEcmJiGZQ",
    "name": "Cajun Kate's",
    "review_count": 167,
    "rating": 5.0,
    "price_range": "$$",
    "location": {
      "city": "Boothwyn",
      "state": "PA"
    },
    "image_url": "https://s3-media2.fl.yelpcdn.com/bphoto/od0qAdNoYLEUzVSLHHE5sw/o.jpg",
    "alias": "cajun",
    "title": "Cajun/Creole"
  },
  {
    "id": "sSEKLTDGKdvOqevbfoBbiw",
    "name": "Cavanaugh's Restaurant",
    "review_count": 29,
    "rating": 4.0,
    "price_range": "$$",
    "location": {
      "city": "Wilmington",
      "state": "DE"
    },
    "image_url": "https://s3-media4.fl.yelpcdn.com/bphoto/4GH1XtKh22wM4G8HHS71xw/o.jpg",
    "alias": "tradamerican",
    "title": "American"
  },
  {
    "id": "K3ZZua4ab6YLhPqZ_DEDlw",
    "name": "BBC Tavern and Grill",
    "review_count": 154,
    "rating": 3.0,
    "price_range": "$$",
    "location": {
      "city": "Greenville",
      "state": "DE"
    },
    "image_url": "https://s3-media1.fl.yelpcdn.com/bphoto/giXYn4_1cSBsPelDxHfXhw/o.jpg",
    "alias": "tradamerican",
    "title": "American"
  },
  {
    "id": "uoMWvXch6sWnI9FMsE_-Vg",
    "name": "Cafe Napoli Restaurant & Pizzeria",
    "review_count": 137,
    "rating": 4.0,
    "price_range": "$$",
    "location": {
      "city": "Wilmington",
      "state": "DE"
    },
    "image_url": "https://s3-media4.fl.yelpcdn.com/bphoto/diW26Dm3Ot1u4Oe5VPUBHw/o.jpg",
    "alias": "pizza",
    "title": "Pizza"
  },
  {
    "id": "Vi-hJ02hpWrNDONtR2JkOw",
    "name": "Iron Hill Brewery & Restaurant",
    "review_count": 418,
    "rating": 4.0,
    "price_range": "$$",
    "location": {
      "city": "Newark",
      "state": "DE"
    },
    "image_url": "https://s3-media1.fl.yelpcdn.com/bphoto/dOsqOQ7z3IE3Qe2YepZJPg/o.jpg",
    "alias": "newamerican",
    "title": "New American"
  },
  {
    "id": "r08CGs3hygzCtBcmZYpZsg",
    "name": "Jae Seafood by Tommy",
    "review_count": 57,
    "rating": 4.0,
    "price_range": "$$$",
    "location": {
      "city": "Wilmington",
      "state": "DE"
    },
    "image_url": "https://s3-media1.fl.yelpcdn.com/bphoto/VKY5-2NWsy3g3zt5ZfJ5BQ/o.jpg",
    "alias": "seafood",
    "title": "Seafood"
  },
  {
    "id": "BKVwN2btBPovpWis42Urlg",
    "name": "Kozy Korner Restaurant",
    "review_count": 58,
    "rating": 4.0,
    "price_range": "$",
    "location": {
      "city": "Wilmington",
      "state": "DE"
    },
    "image_url": "https://s3-media3.fl.yelpcdn.com/bphoto/w2M2HP0AI0JOo9XRmBs96Q/o.jpg",
    "alias": "diners",
    "title": "Diners"
  },
  {
    "id": "752g7SDnEV4Jcj_fsEvWxA",
    "name": "Sicily's Pizza",
    "review_count": 11,
    "rating": 4.5,
    "price_range": null,
    "location": {
      "city": "Wilmington",
      "state": "DE"
    },
    "image_url": "https://s3-media2.fl.yelpcdn.com/bphoto/7QRGh7gUAb1QvWHzC9GVsw/o.jpg",
    "alias": "pizza",
    "title": "Pizza"
  },
  {
    "id": "-N6WYX1myD9zyYzjddOgTA",
    "name": "Rooted AF.",
    "review_count": 14,
    "rating": 4.5,
    "price_range": null,
    "location": {
      "city": "Wilmington",
      "state": "DE"
    },
    "image_url": "https://s3-media2.fl.yelpcdn.com/bphoto/Vf58CgwztOz_ZAGEUlnJLA/o.jpg",
    "alias": "vegan",
    "title": "Vegan"
  },
  {
    "id": "hqZnhC1U7qGpKAqPZAXNUw",
    "name": "Home Grown Cafe",
    "review_count": 486,
    "rating": 4.0,
    "price_range": "$$",
    "location": {
      "city": "Newark",
      "state": "DE"
    },
    "image_url": "https://s3-media4.fl.yelpcdn.com/bphoto/ji9tY_IUPfYwp-t2XMuntA/o.jpg",
    "alias": "newamerican",
    "title": "New American"
  },
  {
    "id": "ViEXBEJ7sa5uO9uFxaF3iA",
    "name": "Poke Bowl",
    "review_count": 7,
    "rating": 5.0,
    "price_range": null,
    "location": {
      "city": "Wilmington",
      "state": "DE"
    },
    "image_url": "https://s3-media1.fl.yelpcdn.com/bphoto/IxCsbBH2PotsupXaLnASWQ/o.jpg",
    "alias": "hawaiian",
    "title": "Hawaiian"
  },
  {
    "id": "iBXg-AdeXQqqxLDfUptusQ",
    "name": "Brandywine Coffee Roasters",
    "review_count": 9,
    "rating": 5.0,
    "price_range": "$$",
    "location": {
      "city": "Wilmington",
      "state": "DE"
    },
    "image_url": "https://s3-media1.fl.yelpcdn.com/bphoto/buObKaoMZm9gnyIuddx-ZA/o.jpg",
    "alias": "coffee",
    "title": "Coffee & Tea"
  },
  {
    "id": "HQdoy8OpEuGKM_Op-ovHFQ",
    "name": "Skipjack Dining",
    "review_count": 139,
    "rating": 4.0,
    "price_range": "$$",
    "location": {
      "city": "Newark",
      "state": "DE"
    },
    "image_url": "https://s3-media2.fl.yelpcdn.com/bphoto/zXjPz_zkiu5qQYnoeHqDPQ/o.jpg",
    "alias": "newamerican",
    "title": "New American"
  },
  {
    "id": "srk9xvVrkXrEKUP-7oXAfQ",
    "name": "Stanley's Tavern",
    "review_count": 132,
    "rating": 3.0,
    "price_range": "$$",
    "location": {
      "city": "Wilmington",
      "state": "DE"
    },
    "image_url": "https://s3-media4.fl.yelpcdn.com/bphoto/I_s5MH3onqqKTpn-ZM9gwQ/o.jpg",
    "alias": "tradamerican",
    "title": "American"
  },
  {
    "id": "P9pwQW2d-M1YgYQH71K-qw",
    "name": "Olympic Subs & Steaks",
    "review_count": 73,
    "rating": 4.5,
    "price_range": "$",
    "location": {
      "city": "Wilmington",
      "state": "DE"
    },
    "image_url": "https://s3-media1.fl.yelpcdn.com/bphoto/5OHpdNkpaocz3WbirlKYEQ/o.jpg",
    "alias": "sandwiches",
    "title": "Sandwiches"
  },
  {
    "id": "4C0xj95V8-Mp14OixoTUZA",
    "name": "El Maya Mexican Grill",
    "review_count": 87,
    "rating": 3.5,
    "price_range": "$$",
    "location": {
      "city": "Wilmington",
      "state": "DE"
    },
    "image_url": "https://s3-media2.fl.yelpcdn.com/bphoto/vVjH_ROJVuzzuB3uZX_Arg/o.jpg",
    "alias": "mexican",
    "title": "Mexican"
  },
  {
    "id": "sTvFxzQU_4bm-owSJXx0MQ",
    "name": "Cromwell's American Tavern and Taqueria",
    "review_count": 106,
    "rating": 3.0,
    "price_range": "$$",
    "location": {
      "city": "Greenville",
      "state": "DE"
    },
    "image_url": "https://s3-media2.fl.yelpcdn.com/bphoto/gEja77NIgakDQPKeiUgfpA/o.jpg",
    "alias": "newamerican",
    "title": "New American"
  },
  {
    "id": "LOYex5JW6KuH_4t332wzsQ",
    "name": "Kelly's Logan House",
    "review_count": 72,
    "rating": 3.0,
    "price_range": "$$",
    "location": {
      "city": "Wilmington",
      "state": "DE"
    },
    "image_url": "https://s3-media3.fl.yelpcdn.com/bphoto/KRiihPz-1hT95H5Dt32xEA/o.jpg",
    "alias": "newamerican",
    "title": "New American"
  },
  {
    "id": "eS3gRY_8yxWiGzMZIdgz-A",
    "name": "Brick & Brew",
    "review_count": 429,
    "rating": 4.0,
    "price_range": "$$",
    "location": {
      "city": "Media",
      "state": "PA"
    },
    "image_url": "https://s3-media2.fl.yelpcdn.com/bphoto/9kRvui4ZYzCOmY373x3n8w/o.jpg",
    "alias": "gastropubs",
    "title": "Gastropubs"
  },
  {
    "id": "gqhOAmj7npSiq4b6j5-vuw",
    "name": "1906 Fine Dining",
    "review_count": 180,
    "rating": 4.0,
    "price_range": "$$$",
    "location": {
      "city": "Kennett Square",
      "state": "PA"
    },
    "image_url": "https://s3-media2.fl.yelpcdn.com/bphoto/eAzjCYuMsWnquaE8jTb-sw/o.jpg",
    "alias": "newamerican",
    "title": "New American"
  },
  {
    "id": "jRbCgGm1cpIcBZf-vOhJvA",
    "name": "Daily Veg",
    "review_count": 82,
    "rating": 4.5,
    "price_range": "$$",
    "location": {
      "city": "Wilmington",
      "state": "DE"
    },
    "image_url": "https://s3-media2.fl.yelpcdn.com/bphoto/8Mn-52g75-7cOi9vMgY0Cg/o.jpg",
    "alias": "juicebars",
    "title": "Juice Bars & Smoothies"
  },
  {
    "id": "tE-G8xUhqCRacv6BXay_6Q",
    "name": "Stone Balloon Ale House",
    "review_count": 201,
    "rating": 4.0,
    "price_range": "$$",
    "location": {
      "city": "Newark",
      "state": "DE"
    },
    "image_url": "https://s3-media3.fl.yelpcdn.com/bphoto/HE18pT6sEG54j2MRbqDa2w/o.jpg",
    "alias": "comfortfood",
    "title": "Comfort Food"
  },
  {
    "id": "Val9bp4hI6-QI-n4OTBaHg",
    "name": "Nomad Bar",
    "review_count": 40,
    "rating": 4.5,
    "price_range": "$$",
    "location": {
      "city": "Wilmington",
      "state": "DE"
    },
    "image_url": "https://s3-media2.fl.yelpcdn.com/bphoto/WnwuvzIBRmP96r-8dkj0oA/o.jpg",
    "alias": "bars",
    "title": "Bars"
  },
  {
    "id": "58OuqehnPxdFq8gWR_hBRw",
    "name": "Milk & Honey Coffeehouses",
    "review_count": 32,
    "rating": 4.5,
    "price_range": null,
    "location": {
      "city": "Wilmington",
      "state": "DE"
    },
    "image_url": "https://s3-media2.fl.yelpcdn.com/bphoto/PNugziTtSWYe8krNoiIA8Q/o.jpg",
    "alias": "coffee",
    "title": "Coffee & Tea"
  },
  {
    "id": "VXweLHzXRksINhOcu4Jrxw",
    "name": "Bar Reverie",
    "review_count": 29,
    "rating": 3.5,
    "price_range": null,
    "location": {
      "city": "Greenville",
      "state": "DE"
    },
    "image_url": "https://s3-media2.fl.yelpcdn.com/bphoto/GvpL9OW23UtXGdF-EYoWuw/o.jpg",
    "alias": "bakeries",
    "title": "Bakeries"
  },
  {
    "id": "oS70RVt-RegY3Ts0hLASQA",
    "name": "Saap Lao Thai Cuisine",
    "review_count": 99,
    "rating": 4.5,
    "price_range": "$$",
    "location": {
      "city": "New Castle",
      "state": "DE"
    },
    "image_url": "https://s3-media3.fl.yelpcdn.com/bphoto/AhKcVCJ__7q3Rl2-GtHEsQ/o.jpg",
    "alias": "thai",
    "title": "Thai"
  },
  {
    "id": "8HIJ1mE3Z1YskvpJsNkTCQ",
    "name": "Java Bean Cafe",
    "review_count": 54,
    "rating": 5.0,
    "price_range": null,
    "location": {
      "city": "Claymont",
      "state": "DE"
    },
    "image_url": "https://s3-media1.fl.yelpcdn.com/bphoto/aDVVUucxvxFZoCl0J8EMVA/o.jpg",
    "alias": "cafes",
    "title": "Cafes"
  },
  {
    "id": "W_M-QaSW2y2JfUDRfOZ4-Q",
    "name": "Gallucio's",
    "review_count": 41,
    "rating": 3.0,
    "price_range": "$$",
    "location": {
      "city": "Wilmington",
      "state": "DE"
    },
    "image_url": "https://s3-media4.fl.yelpcdn.com/bphoto/CwDLWIzcAy9HOBj_MoK3hw/o.jpg",
    "alias": "cheesesteaks",
    "title": "Cheesesteaks"
  },
  {
    "id": "5Qe5XyVtWDhygiyRs-PmlA",
    "name": "Di Paolo's Italian Ristorante",
    "review_count": 244,
    "rating": 4.0,
    "price_range": "$$$",
    "location": {
      "city": "Penns Grove",
      "state": "NJ"
    },
    "image_url": "https://s3-media3.fl.yelpcdn.com/bphoto/uBFV7lLz1xEN9Y3DJeNREQ/o.jpg",
    "alias": "italian",
    "title": "Italian"
  },
  {
    "id": "FnI_J_T63I3Py7GnnmDaWA",
    "name": "Sushi Xtreme",
    "review_count": 117,
    "rating": 4.0,
    "price_range": "$$",
    "location": {
      "city": "Wilmington",
      "state": "DE"
    },
    "image_url": "https://s3-media4.fl.yelpcdn.com/bphoto/vRL3LTE4jgFbipukirqyqA/o.jpg",
    "alias": "japanese",
    "title": "Japanese"
  },
  {
    "id": "hFfxaiz7GW3oAh9E1nOQmw",
    "name": "Terrain Cafe - Glen Mills",
    "review_count": 476,
    "rating": 4.0,
    "price_range": "$$",
    "location": {
      "city": "Glen Mills",
      "state": "PA"
    },
    "image_url": "https://s3-media4.fl.yelpcdn.com/bphoto/lPkCsGW2rc87Vgmg6L2vRQ/o.jpg",
    "alias": "cafes",
    "title": "Cafes"
  },
  {
    "id": "riwJWxj4850tGBhRahDt7g",
    "name": "Sushi Sumo",
    "review_count": 223,
    "rating": 4.5,
    "price_range": "$$",
    "location": {
      "city": "Newark",
      "state": "DE"
    },
    "image_url": "https://s3-media4.fl.yelpcdn.com/bphoto/Bcm1F1RFDuZLIn9z2j2MhA/o.jpg",
    "alias": "japanese",
    "title": "Japanese"
  },
  {
    "id": "6PQVs8ZtID-Vz2_tp5cisw",
    "name": "Roots Natural Kitchen",
    "review_count": 125,
    "rating": 4.5,
    "price_range": "$",
    "location": {
      "city": "Newark",
      "state": "DE"
    },
    "image_url": "https://s3-media1.fl.yelpcdn.com/bphoto/vdZ3dpD1sXpvA80mbZNbPA/o.jpg",
    "alias": "salad",
    "title": "Salad"
  },
  {
    "id": "shIAkjO9IFa4yTM5EENPTQ",
    "name": "PureBread Deli",
    "review_count": 42,
    "rating": 4.0,
    "price_range": "$",
    "location": {
      "city": "Wilmington",
      "state": "DE"
    },
    "image_url": "https://s3-media1.fl.yelpcdn.com/bphoto/k0q05IsXFH-SRvEVRxIx_A/o.jpg",
    "alias": "salad",
    "title": "Salad"
  },
  {
    "id": "QVcSv47o1DT-lF4vBsQizQ",
    "name": "Ariano",
    "review_count": 370,
    "rating": 4.0,
    "price_range": "$$",
    "location": {
      "city": "Media",
      "state": "PA"
    },
    "image_url": "https://s3-media3.fl.yelpcdn.com/bphoto/GY1J6lB2xa2ePB9W2fi0Dg/o.jpg",
    "alias": "pizza",
    "title": "Pizza"
  },
  {
    "id": "veEVH9fwkhs_iR38LlK2yA",
    "name": "Cafe Americana",
    "review_count": 51,
    "rating": 4.0,
    "price_range": null,
    "location": {
      "city": "Wilmington",
      "state": "DE"
    },
    "image_url": "https://s3-media2.fl.yelpcdn.com/bphoto/rYl_HhVe42hLJGMSMiq4eA/o.jpg",
    "alias": "breakfast_brunch",
    "title": "Breakfast & Brunch"
  },
  {
    "id": "EROSyhoWNCUH53NrDrsHgQ",
    "name": "Mary's Kountry Kitchen",
    "review_count": 66,
    "rating": 4.0,
    "price_range": "$",
    "location": {
      "city": "Wilmington",
      "state": "DE"
    },
    "image_url": "https://s3-media4.fl.yelpcdn.com/bphoto/SgcB1HLN7Y-Timr8G4X67g/o.jpg",
    "alias": "tradamerican",
    "title": "American"
  },
  {
    "id": "WNjgS5H-64kIprMOPnVkaQ",
    "name": "Koy Restaurant",
    "review_count": 82,
    "rating": 4.5,
    "price_range": "$$",
    "location": {
      "city": "Glen Mills",
      "state": "PA"
    },
    "image_url": "https://s3-media1.fl.yelpcdn.com/bphoto/UAyK3BXCuPO9doBWR4ZcJA/o.jpg",
    "alias": "japanese",
    "title": "Japanese"
  },
  {
    "id": "J7ExLspVIoxXKe22Gty45g",
    "name": "Brandywine Zoo",
    "review_count": 57,
    "rating": 3.5,
    "price_range": null,
    "location": {
      "city": "Wilmington",
      "state": "DE"
    },
    "image_url": "https://s3-media1.fl.yelpcdn.com/bphoto/53ZQyOh7CxZDVh0lY4URaQ/o.jpg",
    "alias": "zoos",
    "title": "Zoos"
  },
  {
    "id": "wz_wBcvlHhLi6DGKi_MPOw",
    "name": "Angelo's Luncheonette",
    "review_count": 53,
    "rating": 4.5,
    "price_range": "$",
    "location": {
      "city": "Wilmington",
      "state": "DE"
    },
    "image_url": "https://s3-media2.fl.yelpcdn.com/bphoto/gYYGqwSEN0JelEl08565xQ/o.jpg",
    "alias": "sandwiches",
    "title": "Sandwiches"
  },
  {
    "id": "mAAnVFofJvwpXJ1GzXdGsg",
    "name": "Italiano's",
    "review_count": 81,
    "rating": 4.5,
    "price_range": "$$",
    "location": {
      "city": "Marcus Hook",
      "state": "PA"
    },
    "image_url": "https://s3-media4.fl.yelpcdn.com/bphoto/aaLAJyfjqtFLqGdu0TIayw/o.jpg",
    "alias": "italian",
    "title": "Italian"
  },
  {
    "id": "71UVaCN8AtyovlqoS0Hixg",
    "name": "La Tolteca ",
    "review_count": 249,
    "rating": 3.0,
    "price_range": "$$",
    "location": {
      "city": "Wilmington",
      "state": "DE"
    },
    "image_url": "https://s3-media2.fl.yelpcdn.com/bphoto/BkDsTNy8E8dbCFLGh-gtiQ/o.jpg",
    "alias": "mexican",
    "title": "Mexican"
  },
  {
    "id": "iR5MI7ch9z3AYiqxBVLJLw",
    "name": "Sullivan's Steakhouse",
    "review_count": 295,
    "rating": 3.0,
    "price_range": "$$$",
    "location": {
      "city": "Wilmington",
      "state": "DE"
    },
    "image_url": "https://s3-media3.fl.yelpcdn.com/bphoto/-Blcl2CxKKv1oa_tJRw8SQ/o.jpg",
    "alias": "steak",
    "title": "Steakhouses"
  },
  {
    "id": "E310BLxiX4RBkz-BLWCWsQ",
    "name": "Concord Diner",
    "review_count": 29,
    "rating": 3.5,
    "price_range": null,
    "location": {
      "city": "Wilmington",
      "state": "DE"
    },
    "image_url": "https://s3-media4.fl.yelpcdn.com/bphoto/JEUtdcu9pytTvAh5dgsZag/o.jpg",
    "alias": "newamerican",
    "title": "New American"
  },
  {
    "id": "FhI8-M6EYtwfrerkWL_VMg",
    "name": "Vincente's Restaurant",
    "review_count": 102,
    "rating": 4.0,
    "price_range": "$$$",
    "location": {
      "city": "Wilmington",
      "state": "DE"
    },
    "image_url": "https://s3-media3.fl.yelpcdn.com/bphoto/WY1183BdPN_8M_Nh1OZ97A/o.jpg",
    "alias": "italian",
    "title": "Italian"
  },
  {
    "id": "0MivygP7tD4AWbskqYmMuA",
    "name": "Taverna",
    "review_count": 80,
    "rating": 3.5,
    "price_range": "$$",
    "location": {
      "city": "Wilmington",
      "state": "DE"
    },
    "image_url": "https://s3-media1.fl.yelpcdn.com/bphoto/eGNmDJtS_sfEtKGY9Sae0Q/o.jpg",
    "alias": "italian",
    "title": "Italian"
  },
  {
    "id": "_po9WXsCIPJREulqYy4DdA",
    "name": "Yokai Ramen Bistro",
    "review_count": 29,
    "rating": 4.0,
    "price_range": "$$",
    "location": {
      "city": "Wilmington",
      "state": "DE"
    },
    "image_url": "https://s3-media1.fl.yelpcdn.com/bphoto/5yvuL35se5EuoVUkxuwowg/o.jpg",
    "alias": "ramen",
    "title": "Ramen"
  },
  {
    "id": "leBpyQruds138tREAfRvzA",
    "name": "Libbys Restaurant",
    "review_count": 55,
    "rating": 4.0,
    "price_range": "$",
    "location": {
      "city": "Wilmington",
      "state": "DE"
    },
    "image_url": "https://s3-media1.fl.yelpcdn.com/bphoto/ENHJUsq72aHqVq44P7LCFA/o.jpg",
    "alias": "tradamerican",
    "title": "American"
  },
  {
    "id": "UwwimB6EoAsKJ6BCVBifVw",
    "name": "Masamoto Sushi & Asian Grill",
    "review_count": 228,
    "rating": 4.0,
    "price_range": "$$",
    "location": {
      "city": "Chadds Ford",
      "state": "PA"
    },
    "image_url": "https://s3-media4.fl.yelpcdn.com/bphoto/gRzkl-VOIvG2VstdJy9qKA/o.jpg",
    "alias": "sushi",
    "title": "Sushi Bars"
  },
  {
    "id": "XqOSW0xVG7796_l_5-ai1A",
    "name": "Mexican Table",
    "review_count": 177,
    "rating": 4.0,
    "price_range": "$$",
    "location": {
      "city": "Hockessin",
      "state": "DE"
    },
    "image_url": "https://s3-media3.fl.yelpcdn.com/bphoto/durmSsVHuM9BjLnff-PpiQ/o.jpg",
    "alias": "mexican",
    "title": "Mexican"
  },
  {
    "id": "Xjal8g4PsYinAfeQ8RWf4Q",
    "name": "Wasabi2",
    "review_count": 92,
    "rating": 4.5,
    "price_range": "$$",
    "location": {
      "city": "West Chester",
      "state": "PA"
    },
    "image_url": "https://s3-media2.fl.yelpcdn.com/bphoto/CCR2W95QfwkQJy3Rnmdn9w/o.jpg",
    "alias": "chinese",
    "title": "Chinese"
  },
  {
    "id": "tAGfqftHHb6M1QsYEZtFHA",
    "name": "Firebirds Wood Fired Grill",
    "review_count": 260,
    "rating": 4.0,
    "price_range": "$$",
    "location": {
      "city": "Chadds Ford",
      "state": "PA"
    },
    "image_url": "https://s3-media1.fl.yelpcdn.com/bphoto/R6vkJ6LkQtsRCW6FNmawVA/o.jpg",
    "alias": "steak",
    "title": "Steakhouses"
  },
  {
    "id": "IHO1oAX0PrEQo5VYuipX7g",
    "name": "Culinaria",
    "review_count": 64,
    "rating": 3.5,
    "price_range": "$$",
    "location": {
      "city": "Wilmington",
      "state": "DE"
    },
    "image_url": "https://s3-media2.fl.yelpcdn.com/bphoto/1fPVxA_kzgpNcmYCIOKWLA/o.jpg",
    "alias": "newamerican",
    "title": "New American"
  },
  {
    "id": "J4Lj1Mag6ODDmP0kuRnEZw",
    "name": "Cafe Mezzanotte",
    "review_count": 65,
    "rating": 3.0,
    "price_range": "$$",
    "location": {
      "city": "Wilmington",
      "state": "DE"
    },
    "image_url": "https://s3-media3.fl.yelpcdn.com/bphoto/xMtcvZSg-jASUCAPnQJEXw/o.jpg",
    "alias": "italian",
    "title": "Italian"
  },
  {
    "id": "zQ_niKFi-9Aq2g3KJvot1A",
    "name": "Big Bad Wolf Barbeque",
    "review_count": 143,
    "rating": 4.5,
    "price_range": "$$",
    "location": {
      "city": "Aston",
      "state": "PA"
    },
    "image_url": "https://s3-media3.fl.yelpcdn.com/bphoto/hevDcQsXDNhLYLffHMjkzw/o.jpg",
    "alias": "bbq",
    "title": "Barbeque"
  },
  {
    "id": "kvb0a9FiFs9UXWxE6q-5DA",
    "name": "Naaman's Pizzeria",
    "review_count": 50,
    "rating": 4.5,
    "price_range": "$",
    "location": {
      "city": "Wilmington",
      "state": "DE"
    },
    "image_url": "https://s3-media4.fl.yelpcdn.com/bphoto/ThOWzagAaDrmLmaUHucBMA/o.jpg",
    "alias": "pizza",
    "title": "Pizza"
  },
  {
    "id": "CjNgviOrZCvbrewoR7_SgA",
    "name": "Cafe Americana 2",
    "review_count": 115,
    "rating": 4.5,
    "price_range": "$$",
    "location": {
      "city": "Kennett Square",
      "state": "PA"
    },
    "image_url": "https://s3-media3.fl.yelpcdn.com/bphoto/ZSAH-otR_zcmSQGkGAiEGA/o.jpg",
    "alias": "breakfast_brunch",
    "title": "Breakfast & Brunch"
  },
  {
    "id": "r42G5Rg3kd6_7Evu5gEo9Q",
    "name": "Torbert Street Social",
    "review_count": 5,
    "rating": 5.0,
    "price_range": null,
    "location": {
      "city": "Wilmington",
      "state": "DE"
    },
    "image_url": "https://s3-media3.fl.yelpcdn.com/bphoto/U-hhKZwzRmB1_-_7AFceqg/o.jpg",
    "alias": "tradamerican",
    "title": "American"
  },
  {
    "id": "kMVROdQZoNoQBmvvpe78LA",
    "name": "Al Chu\u2019s Sushi",
    "review_count": 25,
    "rating": 4.5,
    "price_range": null,
    "location": {
      "city": "Wilmington",
      "state": "DE"
    },
    "image_url": "https://s3-media2.fl.yelpcdn.com/bphoto/0hGbXroeIM3bTjoqs6umgQ/o.jpg",
    "alias": "sushi",
    "title": "Sushi Bars"
  },
  {
    "id": "s_sEMaNkRtwjEFJfStaOgQ",
    "name": "Cosmos Restaurant",
    "review_count": 87,
    "rating": 3.5,
    "price_range": "$$",
    "location": {
      "city": "Wilmington",
      "state": "DE"
    },
    "image_url": "https://s3-media4.fl.yelpcdn.com/bphoto/MU3VegcY0-0TfFrrm8CxGA/o.jpg",
    "alias": "diners",
    "title": "Diners"
  },
  {
    "id": "p5OEYAsKeMjNKZI-gZiQrg",
    "name": "Oriental Pearl Restaurant",
    "review_count": 182,
    "rating": 4.0,
    "price_range": "$$",
    "location": {
      "city": "Boothwyn",
      "state": "PA"
    },
    "image_url": "https://s3-media1.fl.yelpcdn.com/bphoto/o5VdmK_PNI9u_54J5iUUSw/o.jpg",
    "alias": "vietnamese",
    "title": "Vietnamese"
  },
  {
    "id": "8ANjPd5LtyPtja3h0QnXUw",
    "name": "Asian House",
    "review_count": 86,
    "rating": 4.5,
    "price_range": "$$",
    "location": {
      "city": "New Castle",
      "state": "DE"
    },
    "image_url": "https://s3-media1.fl.yelpcdn.com/bphoto/8AHatVXMyuJuftIhoW6MOA/o.jpg",
    "alias": "asianfusion",
    "title": "Asian Fusion"
  },
  {
    "id": "TS2vI_Z4oww_HvUlXqKTSg",
    "name": "Banh Mi Boy",
    "review_count": 181,
    "rating": 4.5,
    "price_range": "$",
    "location": {
      "city": "Newark",
      "state": "DE"
    },
    "image_url": "https://s3-media1.fl.yelpcdn.com/bphoto/djqfnuw5uqyZEQItA5HyIw/o.jpg",
    "alias": "vietnamese",
    "title": "Vietnamese"
  },
  {
    "id": "Pn9_MnhoLrMFdW3AZDORMQ",
    "name": "Lucky's Coffee Shop",
    "review_count": 268,
    "rating": 3.5,
    "price_range": "$$",
    "location": {
      "city": "Wilmington",
      "state": "DE"
    },
    "image_url": "https://s3-media3.fl.yelpcdn.com/bphoto/dIXZUSDhyM-gRWBWQlWEQA/o.jpg",
    "alias": "breakfast_brunch",
    "title": "Breakfast & Brunch"
  },
  {
    "id": "aRetE3hno9ISsRMaRaobGA",
    "name": "Lettie's Kitchen",
    "review_count": 85,
    "rating": 4.5,
    "price_range": "$$",
    "location": {
      "city": "Hockessin",
      "state": "DE"
    },
    "image_url": "https://s3-media4.fl.yelpcdn.com/bphoto/sgRhZsdBi2p5SaoEIn7Ccg/o.jpg",
    "alias": "comfortfood",
    "title": "Comfort Food"
  },
  {
    "id": "vdbDx_AXxqyk95vfQStF3g",
    "name": "Delectablez",
    "review_count": 11,
    "rating": 4.5,
    "price_range": null,
    "location": {
      "city": "Wilmington",
      "state": "DE"
    },
    "image_url": "https://s3-media2.fl.yelpcdn.com/bphoto/yhdI_li0wAB9Ytg3bB2NFA/o.jpg",
    "alias": "vegan",
    "title": "Vegan"
  },
  {
    "id": "PjeRXENiFMk47p58ZzTZ4w",
    "name": "SNAP Custom Pizza",
    "review_count": 64,
    "rating": 4.5,
    "price_range": "$",
    "location": {
      "city": "Newark",
      "state": "DE"
    },
    "image_url": "https://s3-media3.fl.yelpcdn.com/bphoto/wkaYI5QW2qXRxtcX7WH4bg/o.jpg",
    "alias": "pizza",
    "title": "Pizza"
  },
  {
    "id": "kDiKNHZLE8b9aqtZOgp7cg",
    "name": "Uncle John's BBQ Stand",
    "review_count": 20,
    "rating": 4.5,
    "price_range": "$$",
    "location": {
      "city": "Wilmington",
      "state": "DE"
    },
    "image_url": "https://s3-media1.fl.yelpcdn.com/bphoto/-2tdWwU9-Qmczht7TnJA5g/o.jpg",
    "alias": "foodtrucks",
    "title": "Food Trucks"
  },
  {
    "id": "ramBBnf8_ZAZ16aUnSUMJg",
    "name": "Tom's Dim Sum",
    "review_count": 363,
    "rating": 4.0,
    "price_range": "$$",
    "location": {
      "city": "Media",
      "state": "PA"
    },
    "image_url": "https://s3-media2.fl.yelpcdn.com/bphoto/sniOjOjMXs5TxZV4mSqKwg/o.jpg",
    "alias": "dimsum",
    "title": "Dim Sum"
  },
  {
    "id": "gemfdRJabGzAqfD1oLLC_A",
    "name": "Horace Shellhammer's",
    "review_count": 187,
    "rating": 4.0,
    "price_range": "$$",
    "location": {
      "city": "Newark",
      "state": "DE"
    },
    "image_url": "https://s3-media3.fl.yelpcdn.com/bphoto/q6NDU7yp9KR-CBkqER4NOQ/o.jpg",
    "alias": "bars",
    "title": "Bars"
  },
  {
    "id": "Vy9VN70aRpIe4yEo55VrWQ",
    "name": "Cafe Riviera",
    "review_count": 68,
    "rating": 3.5,
    "price_range": "$",
    "location": {
      "city": "Wilmington",
      "state": "DE"
    },
    "image_url": "https://s3-media3.fl.yelpcdn.com/bphoto/dycHDhXIEsOMGhK9XQg8tg/o.jpg",
    "alias": "pizza",
    "title": "Pizza"
  },
  {
    "id": "10Ir9qoqfw4BVP6nukA_KA",
    "name": "Agave Mexican Cuisine",
    "review_count": 151,
    "rating": 4.0,
    "price_range": "$$",
    "location": {
      "city": "Chadds Ford",
      "state": "PA"
    },
    "image_url": "https://s3-media1.fl.yelpcdn.com/bphoto/9_LaXAeT0IZveioLCfvgfQ/o.jpg",
    "alias": "mexican",
    "title": "Mexican"
  },
  {
    "id": "XTFkMivGATF-enFwtD1XTQ",
    "name": "Bittersweet Kitchen",
    "review_count": 500,
    "rating": 4.5,
    "price_range": "$$",
    "location": {
      "city": "Media",
      "state": "PA"
    },
    "image_url": "https://s3-media3.fl.yelpcdn.com/bphoto/Wlfp3q2XwUnV9u6f4WZVvA/o.jpg",
    "alias": "breakfast_brunch",
    "title": "Breakfast & Brunch"
  },
  {
    "id": "wkO1a_i1Mzpd-0sbiLa7EA",
    "name": "Little Vinnie's Pizza & Pasta",
    "review_count": 67,
    "rating": 4.0,
    "price_range": "$$",
    "location": {
      "city": "Wilmington",
      "state": "DE"
    },
    "image_url": "https://s3-media2.fl.yelpcdn.com/bphoto/ZY3nR-TWNx4w35mQFYxI0Q/o.jpg",
    "alias": "pizza",
    "title": "Pizza"
  },
  {
    "id": "0Sp4fiKuzw9G-WJNl51dBg",
    "name": "Delaware Children's Museum",
    "review_count": 48,
    "rating": 4.0,
    "price_range": null,
    "location": {
      "city": "Wilmington",
      "state": "DE"
    },
    "image_url": "https://s3-media2.fl.yelpcdn.com/bphoto/ZiInw25W9rrla5w-EZ2evQ/o.jpg",
    "alias": "childrensmuseums",
    "title": "Children's Museums"
  },
  {
    "id": "QcMIUKZr9s6LFy7jsDvNVw",
    "name": "Brandywine Prime",
    "review_count": 224,
    "rating": 4.0,
    "price_range": "$$$",
    "location": {
      "city": "Chadds Ford",
      "state": "PA"
    },
    "image_url": "https://s3-media3.fl.yelpcdn.com/bphoto/1OX9dZJ-z-h78spCa4ZMnA/o.jpg",
    "alias": "steak",
    "title": "Steakhouses"
  },
  {
    "id": "mLKmAEi5q1JTZHsL5xqNTg",
    "name": "Vita Nova",
    "review_count": 20,
    "rating": 5.0,
    "price_range": "$$$",
    "location": {
      "city": "Newark",
      "state": "DE"
    },
    "image_url": "https://s3-media2.fl.yelpcdn.com/bphoto/sdR3aZPfnmoGrXRchxoYUg/o.jpg",
    "alias": "newamerican",
    "title": "New American"
  },
  {
    "id": "in5SlVBx0AW2W1Gx0b76cA",
    "name": "Bierhaul",
    "review_count": 67,
    "rating": 4.0,
    "price_range": "$$",
    "location": {
      "city": "Thornton",
      "state": "PA"
    },
    "image_url": "https://s3-media2.fl.yelpcdn.com/bphoto/IdIIoRvmwyOnc5O5GAXYVw/o.jpg",
    "alias": "pizza",
    "title": "Pizza"
  },
  {
    "id": "Y4eaKcLP0hCIfvhknOT4uQ",
    "name": "Crossroads Restaurant",
    "review_count": 124,
    "rating": 3.5,
    "price_range": "$$",
    "location": {
      "city": "Wilmington",
      "state": "DE"
    },
    "image_url": "https://s3-media3.fl.yelpcdn.com/bphoto/IulJD6Dv5d0eFfrsbv9_og/o.jpg",
    "alias": "diners",
    "title": "Diners"
  },
  {
    "id": "u7bo1o8ry-fvb6PbvtZJzQ",
    "name": "Poke Bros",
    "review_count": 71,
    "rating": 4.0,
    "price_range": "$$",
    "location": {
      "city": "Wilmington",
      "state": "DE"
    },
    "image_url": "https://s3-media4.fl.yelpcdn.com/bphoto/xolhd3JPISHA-hwlRlYRow/o.jpg",
    "alias": "poke",
    "title": "Poke"
  },
  {
    "id": "EwJqU25RgwkbOPKaiMSxLQ",
    "name": "La Pe\u00f1a Mexicana",
    "review_count": 234,
    "rating": 4.5,
    "price_range": "$",
    "location": {
      "city": "Kennett Square",
      "state": "PA"
    },
    "image_url": "https://s3-media3.fl.yelpcdn.com/bphoto/rDREQgJUtGj67G5sZPhNVw/o.jpg",
    "alias": "mexican",
    "title": "Mexican"
  },
  {
    "id": "vVLLNrqhvrkVXfIIW9Etag",
    "name": "Timothy's On the Riverfront",
    "review_count": 175,
    "rating": 2.5,
    "price_range": "$$",
    "location": {
      "city": "Wilmington",
      "state": "DE"
    },
    "image_url": "https://s3-media4.fl.yelpcdn.com/bphoto/nxm6zdZjCy5QChaKvoRQ_w/o.jpg",
    "alias": "tradamerican",
    "title": "American"
  },
  {
    "id": "P5LL37t-OuvX1RgHmk7cxw",
    "name": "Malin's Market and Deli",
    "review_count": 161,
    "rating": 4.5,
    "price_range": "$",
    "location": {
      "city": "Newark",
      "state": "DE"
    },
    "image_url": "https://s3-media2.fl.yelpcdn.com/bphoto/t3Md8YnRsAku-KSaJQg2tw/o.jpg",
    "alias": "grocery",
    "title": "Grocery"
  },
  {
    "id": "RKk_Z3875_PRu00Aw50ElQ",
    "name": "Sang Tong Thai",
    "review_count": 48,
    "rating": 5.0,
    "price_range": null,
    "location": {
      "city": "Pennsville Township",
      "state": "NJ"
    },
    "image_url": "https://s3-media4.fl.yelpcdn.com/bphoto/uub6SGHrvbsB5Z7syb8v3A/o.jpg",
    "alias": "thai",
    "title": "Thai"
  },
  {
    "id": "MTkukqo9hGGht0gA-o9cEw",
    "name": "Hamilton\u2019s on Main",
    "review_count": 96,
    "rating": 4.0,
    "price_range": null,
    "location": {
      "city": "Newark",
      "state": "DE"
    },
    "image_url": "https://s3-media3.fl.yelpcdn.com/bphoto/zMPniMbezUN6R_8qU__ScA/o.jpg",
    "alias": "newamerican",
    "title": "New American"
  },
  {
    "id": "JgYdYd7qXgFXVjGWFJOz1Q",
    "name": "Walts Catering And Delive",
    "review_count": 19,
    "rating": 4.0,
    "price_range": null,
    "location": {
      "city": "Wilmington",
      "state": "DE"
    },
    "image_url": "https://s3-media3.fl.yelpcdn.com/bphoto/dVkKGN6f8GWzgGZJpO61XQ/o.jpg",
    "alias": "chicken_wings",
    "title": "Chicken Wings"
  },
  {
    "id": "ilriW8ywq5HFs56Ux8pftw",
    "name": "Ciro Forty Acres",
    "review_count": 55,
    "rating": 3.5,
    "price_range": "$$",
    "location": {
      "city": "Wilmington",
      "state": "DE"
    },
    "image_url": "https://s3-media3.fl.yelpcdn.com/bphoto/MjVpe2lXfDCAHMcn5Dw6vw/o.jpg",
    "alias": "breakfast_brunch",
    "title": "Breakfast & Brunch"
  },
  {
    "id": "jxfAi7UDmtbhyPw7ZsfKVw",
    "name": "Fellini Cafe of Media",
    "review_count": 671,
    "rating": 4.0,
    "price_range": "$$$",
    "location": {
      "city": "Media",
      "state": "PA"
    },
    "image_url": "https://s3-media2.fl.yelpcdn.com/bphoto/vw4Fp2OPKauQfTIfAYYcnw/o.jpg",
    "alias": "italian",
    "title": "Italian"
  },
  {
    "id": "htkEJvkIMjiMvaOOGfLCVg",
    "name": "La Verona Restaurant",
    "review_count": 183,
    "rating": 4.0,
    "price_range": "$$$",
    "location": {
      "city": "Kennett Square",
      "state": "PA"
    },
    "image_url": "https://s3-media1.fl.yelpcdn.com/bphoto/FJY5Xy1wsiCd5AuCzzf0eA/o.jpg",
    "alias": "italian",
    "title": "Italian"
  },
  {
    "id": "LZquQqjVqoWFhVUqfLxUKw",
    "name": "Valle Cucina",
    "review_count": 100,
    "rating": 3.0,
    "price_range": "$$",
    "location": {
      "city": "Wilmington",
      "state": "DE"
    },
    "image_url": "https://s3-media2.fl.yelpcdn.com/bphoto/5FNAjVMLRriGhEDLTeYMEg/o.jpg",
    "alias": "italian",
    "title": "Italian"
  },
  {
    "id": "skT9ekzLdiQRg6Wo2OzMvg",
    "name": "El Mana Restaurant",
    "review_count": 29,
    "rating": 3.5,
    "price_range": "$$",
    "location": {
      "city": "Wilmington",
      "state": "DE"
    },
    "image_url": "https://s3-media1.fl.yelpcdn.com/bphoto/Cs2ckcUhpcM-_25dd9arqg/o.jpg",
    "alias": "puertorican",
    "title": "Puerto Rican"
  },
  {
    "id": "qwIF7ZBgyP01Cdt53aYS3w",
    "name": "Burgers by Wildwich",
    "review_count": 14,
    "rating": 4.0,
    "price_range": "$",
    "location": {
      "city": "Wilmington",
      "state": "DE"
    },
    "image_url": "https://s3-media1.fl.yelpcdn.com/bphoto/yUDyiptl36gGuUkeCSkEXw/o.jpg",
    "alias": "foodtrucks",
    "title": "Food Trucks"
  },
  {
    "id": "uPccfzn0y7YczRT61dno3Q",
    "name": "The Crown Tavern",
    "review_count": 51,
    "rating": 4.0,
    "price_range": "$$",
    "location": {
      "city": "Glen Mills",
      "state": "PA"
    },
    "image_url": "https://s3-media2.fl.yelpcdn.com/bphoto/uFWK_442wuWGNRTC65zEfA/o.jpg",
    "alias": "breweries",
    "title": "Breweries"
  },
  {
    "id": "eSIpWX2r37csb4VXDZ38lw",
    "name": "Da Shin Bistro",
    "review_count": 96,
    "rating": 4.5,
    "price_range": "$$",
    "location": {
      "city": "Media",
      "state": "PA"
    },
    "image_url": "https://s3-media2.fl.yelpcdn.com/bphoto/M_7-hKiNDZFudJATKBqG8g/o.jpg",
    "alias": "chinese",
    "title": "Chinese"
  },
  {
    "id": "kLWpuSBJ0MGM7XRNlg0EEQ",
    "name": "Mojo Loco",
    "review_count": 24,
    "rating": 4.5,
    "price_range": "$$",
    "location": {
      "city": "Wilmington",
      "state": "DE"
    },
    "image_url": "https://s3-media2.fl.yelpcdn.com/bphoto/qVzfMpOlMgUHd8HNavImKA/o.jpg",
    "alias": "foodtrucks",
    "title": "Food Trucks"
  },
  {
    "id": "z_uWtsfsYWbdOFv7bb-6yg",
    "name": "Sweet Lucy'S Ice Cream & Treats",
    "review_count": 46,
    "rating": 4.5,
    "price_range": "$",
    "location": {
      "city": "Wilmington",
      "state": "DE"
    },
    "image_url": "https://s3-media4.fl.yelpcdn.com/bphoto/5Edg1nw6KEumVIDsG7vcpQ/o.jpg",
    "alias": "icecream",
    "title": "Ice Cream & Frozen Yogurt"
  },
  {
    "id": "pOCjLcWQskQjRPi6zdLvAw",
    "name": "Centreville Cafe",
    "review_count": 57,
    "rating": 4.0,
    "price_range": "$",
    "location": {
      "city": "Wilmington",
      "state": "DE"
    },
    "image_url": "https://s3-media1.fl.yelpcdn.com/bphoto/PGJBCT2_FJn6aoXH60KkcA/o.jpg",
    "alias": "cafes",
    "title": "Cafes"
  },
  {
    "id": "W6S482dRQ_9nCcLjfv8VNg",
    "name": "Bawarchi Indian Restaurant",
    "review_count": 108,
    "rating": 3.5,
    "price_range": "$$",
    "location": {
      "city": "Wilmington",
      "state": "DE"
    },
    "image_url": "https://s3-media2.fl.yelpcdn.com/bphoto/htzQtoTLTGU2f0m3mg3Uzg/o.jpg",
    "alias": "indpak",
    "title": "Indian"
  },
  {
    "id": "wJX8kHSze06WopQ7ber5pQ",
    "name": "Paleteria Y Neveria Tocumbo",
    "review_count": 40,
    "rating": 5.0,
    "price_range": "$",
    "location": {
      "city": "Wilmington",
      "state": "DE"
    },
    "image_url": "https://s3-media1.fl.yelpcdn.com/bphoto/ysilgHejkBDWApHQ6EqGzQ/o.jpg",
    "alias": "icecream",
    "title": "Ice Cream & Frozen Yogurt"
  },
  {
    "id": "5xIcqp5q-6mw1FKaKpRCxw",
    "name": "Chuck Lager - America's Tavern",
    "review_count": 176,
    "rating": 4.0,
    "price_range": "$$",
    "location": {
      "city": "Pike Creek",
      "state": "DE"
    },
    "image_url": "https://s3-media1.fl.yelpcdn.com/bphoto/WNtcUJDVF9b8U9ZWRskNUQ/o.jpg",
    "alias": "newamerican",
    "title": "New American"
  },
  {
    "id": "byc92hBKz0DKvjcpl76LRQ",
    "name": "Jasmine Asian Cuisine & Sushi Bar ",
    "review_count": 163,
    "rating": 3.0,
    "price_range": "$$",
    "location": {
      "city": "Wilmington",
      "state": "DE"
    },
    "image_url": "https://s3-media2.fl.yelpcdn.com/bphoto/oPGFC0M41BzMP84fJldMjg/o.jpg",
    "alias": "sushi",
    "title": "Sushi Bars"
  },
  {
    "id": "JQ__Ee1Uuw8bWUu8E2CjBQ",
    "name": "Hong Kong Chinese Food Pick Up",
    "review_count": 50,
    "rating": 3.5,
    "price_range": "$",
    "location": {
      "city": "Wilmington",
      "state": "DE"
    },
    "image_url": "https://s3-media1.fl.yelpcdn.com/bphoto/jSh9EO3v1kZdhQ5PKOlPMw/o.jpg",
    "alias": "chinese",
    "title": "Chinese"
  },
  {
    "id": "b3mgL8J4W7hhHSrMneBKTA",
    "name": "Bernie's Original Italian Ice",
    "review_count": 8,
    "rating": 5.0,
    "price_range": "$",
    "location": {
      "city": "Wilmington",
      "state": "DE"
    },
    "image_url": "https://s3-media1.fl.yelpcdn.com/bphoto/8vG_hUulNYUzhJldVlGzlQ/o.jpg",
    "alias": "icecream",
    "title": "Ice Cream & Frozen Yogurt"
  },
  {
    "id": "Uq-y9KERobbe95mVet8NWw",
    "name": "Semo's Restaurant",
    "review_count": 30,
    "rating": 4.0,
    "price_range": "$",
    "location": {
      "city": "Wilmington",
      "state": "DE"
    },
    "image_url": "https://s3-media2.fl.yelpcdn.com/bphoto/f8mYWnBUJY8HJ1CD6y-L9A/o.jpg",
    "alias": "hotdogs",
    "title": "Fast Food"
  },
  {
    "id": "RbM-F22RcF5i2kDQ3jU1BA",
    "name": "Sweet Nel's",
    "review_count": 115,
    "rating": 4.0,
    "price_range": "$$",
    "location": {
      "city": "Wilmington",
      "state": "DE"
    },
    "image_url": "https://s3-media2.fl.yelpcdn.com/bphoto/smvemAs2w-ClMhizmW2nWw/o.jpg",
    "alias": "coffee",
    "title": "Coffee & Tea"
  },
  {
    "id": "8txsLhIkZddq2kpVSh20-w",
    "name": "Winterthur",
    "review_count": 120,
    "rating": 4.0,
    "price_range": null,
    "location": {
      "city": "Winterthur",
      "state": "DE"
    },
    "image_url": "https://s3-media3.fl.yelpcdn.com/bphoto/IRpMVh0SRnqEPUxTkxFPcw/o.jpg",
    "alias": "museums",
    "title": "Museums"
  },
  {
    "id": "Fz4mzQjAxyrN6tQLcZ73Bw",
    "name": "Not Your Average Joe's",
    "review_count": 381,
    "rating": 3.5,
    "price_range": "$$",
    "location": {
      "city": "Glen Mills",
      "state": "PA"
    },
    "image_url": "https://s3-media2.fl.yelpcdn.com/bphoto/W6i41q09hb3PTgDoGxP-ng/o.jpg",
    "alias": "burgers",
    "title": "Burgers"
  },
  {
    "id": "qC8Whdafj7-DQ29b7Rlcdw",
    "name": "Burrito Bandido",
    "review_count": 37,
    "rating": 4.5,
    "price_range": "$",
    "location": {
      "city": "Wilmington",
      "state": "DE"
    },
    "image_url": "https://s3-media4.fl.yelpcdn.com/bphoto/GdGM3wN2_cc5QIym7O3jpw/o.jpg",
    "alias": "mexican",
    "title": "Mexican"
  },
  {
    "id": "AwJSBic0QvXFdPlTi5LATA",
    "name": "Delco's Original Steaks & Hoagies",
    "review_count": 147,
    "rating": 4.0,
    "price_range": "$$",
    "location": {
      "city": "Chadds Ford",
      "state": "PA"
    },
    "image_url": "https://s3-media3.fl.yelpcdn.com/bphoto/iPPG1cWLaq8nYG3XFg89pw/o.jpg",
    "alias": "sandwiches",
    "title": "Sandwiches"
  },
  {
    "id": "-VbtijUhH4xVP7cZbEo6-Q",
    "name": "Ted's Montana Grill - Christiana",
    "review_count": 197,
    "rating": 3.5,
    "price_range": "$$",
    "location": {
      "city": "Newark",
      "state": "DE"
    },
    "image_url": "https://s3-media2.fl.yelpcdn.com/bphoto/G_OSG5bKMoggLfglHSfEjg/o.jpg",
    "alias": "tradamerican",
    "title": "American"
  },
  {
    "id": "7x_LH8zMI1pnMlIQd363ug",
    "name": "Halal Gyro Kabob House",
    "review_count": 47,
    "rating": 4.5,
    "price_range": null,
    "location": {
      "city": "Newark",
      "state": "DE"
    },
    "image_url": "https://s3-media4.fl.yelpcdn.com/bphoto/I2hntCcz-i_UWEviGrqyGw/o.jpg",
    "alias": "halal",
    "title": "Halal"
  },
  {
    "id": "jwp7_9S5IslgXnA7udfkYQ",
    "name": "Taj Mahal Restaurant",
    "review_count": 89,
    "rating": 4.0,
    "price_range": "$$",
    "location": {
      "city": "Wilmington",
      "state": "DE"
    },
    "image_url": "https://s3-media1.fl.yelpcdn.com/bphoto/633SR9tMAITqIlm50Hzw4g/o.jpg",
    "alias": "indpak",
    "title": "Indian"
  },
  {
    "id": "xNZj9zMVY7NizZyBn41BvA",
    "name": "Tropicalia",
    "review_count": 16,
    "rating": 4.5,
    "price_range": "$",
    "location": {
      "city": "Wilmington",
      "state": "DE"
    },
    "image_url": "https://s3-media2.fl.yelpcdn.com/bphoto/AdeG9ai4M8YmG3H3kynnJw/o.jpg",
    "alias": "dominican",
    "title": "Dominican"
  },
  {
    "id": "SGSAlqFhZYITP4xruLXeiA",
    "name": "KPOT Korean BBQ & Hot Pot",
    "review_count": 67,
    "rating": 4.0,
    "price_range": null,
    "location": {
      "city": "Newark",
      "state": "DE"
    },
    "image_url": "https://s3-media3.fl.yelpcdn.com/bphoto/r0bgaur25el09IHzqbU8oQ/o.jpg",
    "alias": "bbq",
    "title": "Barbeque"
  },
  {
    "id": "k1VWscMY1JqCHNVDk-lD5w",
    "name": "Philter",
    "review_count": 162,
    "rating": 4.5,
    "price_range": "$",
    "location": {
      "city": "Kennett Square",
      "state": "PA"
    },
    "image_url": "https://s3-media3.fl.yelpcdn.com/bphoto/5svjpl7UJUdGP2n0csv6hA/o.jpg",
    "alias": "coffee",
    "title": "Coffee & Tea"
  },
  {
    "id": "152JQDYumtZAFlTsmFAxaA",
    "name": "Nooddi Thai Chef",
    "review_count": 154,
    "rating": 4.0,
    "price_range": "$$",
    "location": {
      "city": "Glen Mills",
      "state": "PA"
    },
    "image_url": "https://s3-media3.fl.yelpcdn.com/bphoto/wFYokhO3IrcPkluUFpVLKw/o.jpg",
    "alias": "thai",
    "title": "Thai"
  },
  {
    "id": "4lVR4qfWaX-wn1v4EakF8A",
    "name": "Barcelona Pizza",
    "review_count": 33,
    "rating": 4.0,
    "price_range": "$$",
    "location": {
      "city": "Wilmington",
      "state": "DE"
    },
    "image_url": "https://s3-media2.fl.yelpcdn.com/bphoto/UJgJRnOEPCWCeEDUaZ9orQ/o.jpg",
    "alias": "chicken_wings",
    "title": "Chicken Wings"
  },
  {
    "id": "0CeoONLXqseUxPdGerefOQ",
    "name": "Mexican Post",
    "review_count": 159,
    "rating": 3.5,
    "price_range": "$$",
    "location": {
      "city": "Wilmington",
      "state": "DE"
    },
    "image_url": "https://s3-media2.fl.yelpcdn.com/bphoto/RAuYmkq2TyN7uRiK6UUA5A/o.jpg",
    "alias": "mexican",
    "title": "Mexican"
  },
  {
    "id": "_ZMf5Am_e0AE7aveELJd9w",
    "name": "La Michoacana Homemade Ice Cream",
    "review_count": 157,
    "rating": 4.5,
    "price_range": "$",
    "location": {
      "city": "Kennett Square",
      "state": "PA"
    },
    "image_url": "https://s3-media4.fl.yelpcdn.com/bphoto/DjgRRc2_uTuvxvQJdbhDBg/o.jpg",
    "alias": "icecream",
    "title": "Ice Cream & Frozen Yogurt"
  },
  {
    "id": "vLiXVP1WHdilv13s5SnnQQ",
    "name": "Bachetti Bros",
    "review_count": 32,
    "rating": 4.5,
    "price_range": "$",
    "location": {
      "city": "Wilmington",
      "state": "DE"
    },
    "image_url": "https://s3-media1.fl.yelpcdn.com/bphoto/bJKyXBCLKyPkgULfGSEzGQ/o.jpg",
    "alias": "catering",
    "title": "Caterers"
  },
  {
    "id": "0r8d2dmtBX2nS6ylLKKspQ",
    "name": "Bread and Buttercream",
    "review_count": 53,
    "rating": 4.5,
    "price_range": null,
    "location": {
      "city": "Wilmington",
      "state": "DE"
    },
    "image_url": "https://s3-media2.fl.yelpcdn.com/bphoto/FReebMi0V8ckM76pJLRhZQ/o.jpg",
    "alias": "bakeries",
    "title": "Bakeries"
  },
  {
    "id": "qxBaXbrXManP31ytCxS2Lw",
    "name": "Hood's BBQ",
    "review_count": 105,
    "rating": 4.0,
    "price_range": "$$",
    "location": {
      "city": "Unionville",
      "state": "PA"
    },
    "image_url": "https://s3-media2.fl.yelpcdn.com/bphoto/jhcp29t4xi_Z4eL8-cObQQ/o.jpg",
    "alias": "bbq",
    "title": "Barbeque"
  },
  {
    "id": "_T_uAA8QWu55WWerljCYug",
    "name": "La Cannelle Cafe",
    "review_count": 70,
    "rating": 4.5,
    "price_range": null,
    "location": {
      "city": "Wallingford",
      "state": "PA"
    },
    "image_url": "https://s3-media1.fl.yelpcdn.com/bphoto/WwUxvUvDhFSxUZK8kc5SDQ/o.jpg",
    "alias": "breakfast_brunch",
    "title": "Breakfast & Brunch"
  },
  {
    "id": "t1QMEcxuqNbD_IQct2pkWg",
    "name": "Dim Sum Mania",
    "review_count": 176,
    "rating": 4.0,
    "price_range": "$$",
    "location": {
      "city": "Media",
      "state": "PA"
    },
    "image_url": "https://s3-media2.fl.yelpcdn.com/bphoto/_F-hGox4vhaIxkDz2HSuvA/o.jpg",
    "alias": "dimsum",
    "title": "Dim Sum"
  },
  {
    "id": "gTM5c2B3X2nEvYg6Jlw_EA",
    "name": "The Mayne Dish",
    "review_count": 37,
    "rating": 4.5,
    "price_range": null,
    "location": {
      "city": "Wilmington",
      "state": "DE"
    },
    "image_url": "https://s3-media4.fl.yelpcdn.com/bphoto/sNi59s64PlJe3E7ymxGK8Q/o.jpg",
    "alias": "caribbean",
    "title": "Caribbean"
  },
  {
    "id": "5R6YO6K9PkthkTbXqV9slQ",
    "name": "Sakura Japanese Restaurant",
    "review_count": 116,
    "rating": 4.0,
    "price_range": "$$",
    "location": {
      "city": "Wilmington",
      "state": "DE"
    },
    "image_url": "https://s3-media3.fl.yelpcdn.com/bphoto/JrkfShYGwegP2fyuFSGRHg/o.jpg",
    "alias": "sushi",
    "title": "Sushi Bars"
  },
  {
    "id": "OgUrojj-vHiX51ra4A8uqg",
    "name": "Cafe Emis",
    "review_count": 56,
    "rating": 4.5,
    "price_range": null,
    "location": {
      "city": "Kennett Square",
      "state": "PA"
    },
    "image_url": "https://s3-media3.fl.yelpcdn.com/bphoto/_jIxVZ8SJ_dG9YTYITyQqw/o.jpg",
    "alias": "greek",
    "title": "Greek"
  },
  {
    "id": "yJ3PJRDGKjnsmqW7BFbB_A",
    "name": "Connie's Chicken and Waffles",
    "review_count": 20,
    "rating": 4.0,
    "price_range": null,
    "location": {
      "city": "Wilmington",
      "state": "DE"
    },
    "image_url": "https://s3-media2.fl.yelpcdn.com/bphoto/TMag1XHAOPvCB3y25_IoKA/o.jpg",
    "alias": "breakfast_brunch",
    "title": "Breakfast & Brunch"
  },
  {
    "id": "wLlaYLBd1KygXqg1YHs_Mg",
    "name": "Mod India Restaurant",
    "review_count": 66,
    "rating": 4.5,
    "price_range": null,
    "location": {
      "city": "Glen Mills",
      "state": "PA"
    },
    "image_url": "https://s3-media3.fl.yelpcdn.com/bphoto/Yyc26e3-Uh28kNE5gThkhQ/o.jpg",
    "alias": "indpak",
    "title": "Indian"
  },
  {
    "id": "aJCQFIfq---psnj_BVTyQw",
    "name": "Pompei\u2019s State Street Sandwiches",
    "review_count": 67,
    "rating": 4.5,
    "price_range": "$$",
    "location": {
      "city": "Media",
      "state": "PA"
    },
    "image_url": "https://s3-media2.fl.yelpcdn.com/bphoto/A0gPP4bnkgqw2PkOtrYVtg/o.jpg",
    "alias": "sandwiches",
    "title": "Sandwiches"
  },
  {
    "id": "Uz4ezmjEr2SawQL3zRcoZQ",
    "name": "Dom's N.Y. Style Pizzeria",
    "review_count": 110,
    "rating": 4.0,
    "price_range": "$",
    "location": {
      "city": "Newport",
      "state": "DE"
    },
    "image_url": "https://s3-media2.fl.yelpcdn.com/bphoto/W44yd7PF_N_NCn-Z8T5XIg/o.jpg",
    "alias": "pizza",
    "title": "Pizza"
  },
  {
    "id": "hF-Ndu77yzspMkDZv9bWzg",
    "name": "Carmen's Kitchen",
    "review_count": 18,
    "rating": 4.5,
    "price_range": "$",
    "location": {
      "city": "Wilmington",
      "state": "DE"
    },
    "image_url": "https://s3-media3.fl.yelpcdn.com/bphoto/HVMvxzXpzvnr9-LmwkYQLg/o.jpg",
    "alias": "puertorican",
    "title": "Puerto Rican"
  },
  {
    "id": "k2Cw-H-jAEMAEq_Sju5AyA",
    "name": "La Mia Pizzeria",
    "review_count": 49,
    "rating": 4.5,
    "price_range": "$$",
    "location": {
      "city": "Chadds Ford",
      "state": "PA"
    },
    "image_url": "https://s3-media2.fl.yelpcdn.com/bphoto/bAlNqR-VaaXLtVlQObgCNA/o.jpg",
    "alias": "pizza",
    "title": "Pizza"
  },
  {
    "id": "CUHE082XLb3X-vKsnFp4aQ",
    "name": "The Greene Turtle Sports Bar and Grille",
    "review_count": 105,
    "rating": 2.5,
    "price_range": "$$",
    "location": {
      "city": "Wilmington",
      "state": "DE"
    },
    "image_url": "https://s3-media2.fl.yelpcdn.com/bphoto/KHx6M0DPUgU1TqKWwsFyKQ/o.jpg",
    "alias": "sportsbars",
    "title": "Sports Bars"
  },
  {
    "id": "jJKvRg2tYr7qWP-VxdjCTQ",
    "name": "The Back Burner",
    "review_count": 117,
    "rating": 3.5,
    "price_range": "$$",
    "location": {
      "city": "Hockessin",
      "state": "DE"
    },
    "image_url": "https://s3-media2.fl.yelpcdn.com/bphoto/C4n7RcPXk6xkPIukOPx-qg/o.jpg",
    "alias": "newamerican",
    "title": "New American"
  },
  {
    "id": "fcAaBcYFo1YqetIjs9l8Iw",
    "name": "Sungate Diner",
    "review_count": 70,
    "rating": 4.5,
    "price_range": "$",
    "location": {
      "city": "Marcus Hook",
      "state": "PA"
    },
    "image_url": "https://s3-media2.fl.yelpcdn.com/bphoto/sfXPZdAcc3gsnKhbJplalQ/o.jpg",
    "alias": "diners",
    "title": "Diners"
  },
  {
    "id": "F7jNP74WiqPZILJXGPByQw",
    "name": "Chadds Ford Tavern",
    "review_count": 234,
    "rating": 3.5,
    "price_range": "$$",
    "location": {
      "city": "Chadds Ford",
      "state": "PA"
    },
    "image_url": "https://s3-media4.fl.yelpcdn.com/bphoto/TmKo7Xr4oVDw1EAFo3lDzQ/o.jpg",
    "alias": "pubs",
    "title": "Pubs"
  },
  {
    "id": "taQYHTJVJsnguw_tfEBShQ",
    "name": "Eat Clean",
    "review_count": 18,
    "rating": 4.0,
    "price_range": null,
    "location": {
      "city": "Wilmington",
      "state": "DE"
    },
    "image_url": "https://s3-media2.fl.yelpcdn.com/bphoto/SzyvY9hDvvU1nanaO-Uixg/o.jpg",
    "alias": "juicebars",
    "title": "Juice Bars & Smoothies"
  },
  {
    "id": "jIP2GqmwA58wC0f_erBqNg",
    "name": "Famous Sgt Bob Smoke BBQ and Grill",
    "review_count": 41,
    "rating": 4.5,
    "price_range": null,
    "location": {
      "city": "Pennsville",
      "state": "NJ"
    },
    "image_url": "https://s3-media3.fl.yelpcdn.com/bphoto/bC4wXqvkqceNN1h3RTrDNA/o.jpg",
    "alias": "bbq",
    "title": "Barbeque"
  },
  {
    "id": "tp8-xklIZq0mnxPO-kt2OQ",
    "name": "Peach Blossom Eatery",
    "review_count": 63,
    "rating": 4.5,
    "price_range": "$$",
    "location": {
      "city": "Newark",
      "state": "DE"
    },
    "image_url": "https://s3-media3.fl.yelpcdn.com/bphoto/bWFBh-Z4p6WgyHudItgnzw/o.jpg",
    "alias": "breakfast_brunch",
    "title": "Breakfast & Brunch"
  },
  {
    "id": "KQk4DebCDK5thbOhMl3FZA",
    "name": "Brew Ha Ha",
    "review_count": 65,
    "rating": 4.0,
    "price_range": "$$",
    "location": {
      "city": "Wilmington",
      "state": "DE"
    },
    "image_url": "https://s3-media1.fl.yelpcdn.com/bphoto/JhhVDjTNjY7Ee1xFE_QJ6g/o.jpg",
    "alias": "coffee",
    "title": "Coffee & Tea"
  },
  {
    "id": "YCfMNP_1YCTXTKlrnw44vQ",
    "name": "Brandywine Diner",
    "review_count": 115,
    "rating": 3.5,
    "price_range": "$$",
    "location": {
      "city": "Wilmington",
      "state": "DE"
    },
    "image_url": "https://s3-media2.fl.yelpcdn.com/bphoto/6GGIw3vIuCD19yqLNgfhwQ/o.jpg",
    "alias": "breakfast_brunch",
    "title": "Breakfast & Brunch"
  },
  {
    "id": "PtVJoVOcsll8TP2HnArLsw",
    "name": "Tyler's Bar & Grille",
    "review_count": 102,
    "rating": 3.0,
    "price_range": "$$",
    "location": {
      "city": "Wilmington",
      "state": "DE"
    },
    "image_url": "https://s3-media4.fl.yelpcdn.com/bphoto/mAY7dHPkoANBWGczNzMmnw/o.jpg",
    "alias": "venues",
    "title": "Venues & Event Spaces"
  },
  {
    "id": "-7wXZWnKe26iwJY_5z_AAw",
    "name": "Fava Ristorante Italiano",
    "review_count": 159,
    "rating": 4.0,
    "price_range": "$$$",
    "location": {
      "city": "Glen Mills",
      "state": "PA"
    },
    "image_url": "https://s3-media2.fl.yelpcdn.com/bphoto/W0ABytO7uv3-2jEyi8a60w/o.jpg",
    "alias": "italian",
    "title": "Italian"
  },
  {
    "id": "VMI47bMwQwRb3elJOMnr6Q",
    "name": "UDairy Creamery",
    "review_count": 216,
    "rating": 4.5,
    "price_range": "$",
    "location": {
      "city": "Newark",
      "state": "DE"
    },
    "image_url": "https://s3-media2.fl.yelpcdn.com/bphoto/pzaaQMad76quWwaYqFfs1Q/o.jpg",
    "alias": "icecream",
    "title": "Ice Cream & Frozen Yogurt"
  },
  {
    "id": "jBgAnt-Espd14jxCshc1SQ",
    "name": "Metro Diner",
    "review_count": 191,
    "rating": 3.5,
    "price_range": "$$",
    "location": {
      "city": "Wilmington",
      "state": "DE"
    },
    "image_url": "https://s3-media1.fl.yelpcdn.com/bphoto/sWz6jGM4YTQThKB8XjftwA/o.jpg",
    "alias": "tradamerican",
    "title": "American"
  },
  {
    "id": "skP6KUZgrEzY1udMSfBOyA",
    "name": "Hot Spot Pizza & Restaurant",
    "review_count": 19,
    "rating": 4.5,
    "price_range": "$",
    "location": {
      "city": "Wilmington",
      "state": "DE"
    },
    "image_url": "https://s3-media2.fl.yelpcdn.com/bphoto/0Ns5iu0QKfoty0L931yqrQ/o.jpg",
    "alias": "pizza",
    "title": "Pizza"
  },
  {
    "id": "YnlPKOysffTnlt_xtT5JUw",
    "name": "Grain Craft Bar + Kitchen",
    "review_count": 8,
    "rating": 4.5,
    "price_range": null,
    "location": {
      "city": "Wilmington",
      "state": "DE"
    },
    "image_url": "https://s3-media2.fl.yelpcdn.com/bphoto/VSMjRvD3t_rUFGZw0XXWlQ/o.jpg",
    "alias": "cocktailbars",
    "title": "Cocktail Bars"
  },
  {
    "id": "dq1SaBM4b7GZ6w2d2OmH_A",
    "name": "GuGu Asian Table",
    "review_count": 62,
    "rating": 4.5,
    "price_range": "$$",
    "location": {
      "city": "Kennett Square",
      "state": "PA"
    },
    "image_url": "https://s3-media1.fl.yelpcdn.com/bphoto/N_z4Gvr7VBU-2qQsqQlQog/o.jpg",
    "alias": "asianfusion",
    "title": "Asian Fusion"
  },
  {
    "id": "vaWpJdOqUYBEpcNI9l4syA",
    "name": "Breakfast at Blume",
    "review_count": 58,
    "rating": 2.5,
    "price_range": null,
    "location": {
      "city": "Wilmington",
      "state": "DE"
    },
    "image_url": "https://s3-media2.fl.yelpcdn.com/bphoto/iOrrczTPTD1qwnRaU-xf8w/o.jpg",
    "alias": "breakfast_brunch",
    "title": "Breakfast & Brunch"
  },
  {
    "id": "ehD-O_CRf7LYvoMIajh71w",
    "name": "Wayside Market",
    "review_count": 97,
    "rating": 4.5,
    "price_range": "$",
    "location": {
      "city": "Media",
      "state": "PA"
    },
    "image_url": "https://s3-media3.fl.yelpcdn.com/bphoto/k32n7MegREwdIZSUIAynZQ/o.jpg",
    "alias": "pizza",
    "title": "Pizza"
  },
  {
    "id": "E-3TJ8yFXpUSv1aThsVfZw",
    "name": "King Garden",
    "review_count": 14,
    "rating": 4.0,
    "price_range": "$",
    "location": {
      "city": "Wilmington",
      "state": "DE"
    },
    "image_url": "https://s3-media3.fl.yelpcdn.com/bphoto/zCI5sJZyxZvMvfiFwd5Tcw/o.jpg",
    "alias": "chinese",
    "title": "Chinese"
  },
  {
    "id": "sxqxivReV1VJbBGDkOmfbA",
    "name": "Michoacana Grill",
    "review_count": 113,
    "rating": 4.0,
    "price_range": "$",
    "location": {
      "city": "Kennett Square",
      "state": "PA"
    },
    "image_url": "https://s3-media3.fl.yelpcdn.com/bphoto/Xl8sflTEozRf4wCiEdssZw/o.jpg",
    "alias": "mexican",
    "title": "Mexican"
  },
  {
    "id": "h3mMPUeFLnd6JjlztFBRXg",
    "name": "Hunan Asian Cuisine",
    "review_count": 41,
    "rating": 3.5,
    "price_range": "$$",
    "location": {
      "city": "Wilmington",
      "state": "DE"
    },
    "image_url": "https://s3-media1.fl.yelpcdn.com/bphoto/cZ_gdPcocdKd8BB492ByiQ/o.jpg",
    "alias": "chinese",
    "title": "Chinese"
  },
  {
    "id": "rugDoz-A6vL-FG-8PbvOag",
    "name": "Brio Italian Grille",
    "review_count": 255,
    "rating": 3.5,
    "price_range": "$$",
    "location": {
      "city": "Newark",
      "state": "DE"
    },
    "image_url": "https://s3-media1.fl.yelpcdn.com/bphoto/YRWnQpyMtwch8ToYPkJvZw/o.jpg",
    "alias": "italian",
    "title": "Italian"
  },
  {
    "id": "ODDacv9N4LgL3Hfj8nvvdg",
    "name": "Texas Roadhouse",
    "review_count": 174,
    "rating": 3.5,
    "price_range": "$$",
    "location": {
      "city": "Bear",
      "state": "DE"
    },
    "image_url": "https://s3-media2.fl.yelpcdn.com/bphoto/9V4gwX0kHikCR7eT7Q983g/o.jpg",
    "alias": "steak",
    "title": "Steakhouses"
  },
  {
    "id": "gk3hzKydevLKZ2FVmJdt-A",
    "name": "Nora Lee's",
    "review_count": 276,
    "rating": 3.5,
    "price_range": "$$",
    "location": {
      "city": "New Castle",
      "state": "DE"
    },
    "image_url": "https://s3-media4.fl.yelpcdn.com/bphoto/gZv8F00HqPVQRTkaUiumqw/o.jpg",
    "alias": "cajun",
    "title": "Cajun/Creole"
  },
  {
    "id": "wyUcCSAhlgxNJvh1EmmobA",
    "name": "GoodEase - Take and Bake",
    "review_count": 16,
    "rating": 4.5,
    "price_range": "$$",
    "location": {
      "city": "Wilmington",
      "state": "DE"
    },
    "image_url": "https://s3-media2.fl.yelpcdn.com/bphoto/stCcU-QDqaYLZhU_-FdpCA/o.jpg",
    "alias": "diyfood",
    "title": "Do-It-Yourself Food"
  },
  {
    "id": "0pamUcfn0SXbuj79Y_tRiw",
    "name": "Ashley's Restaurant & Bar",
    "review_count": 117,
    "rating": 4.0,
    "price_range": "$$",
    "location": {
      "city": "Glen Mills",
      "state": "PA"
    },
    "image_url": "https://s3-media1.fl.yelpcdn.com/bphoto/r0tU3L8drqgyQzFqVJZI7w/o.jpg",
    "alias": "bars",
    "title": "Bars"
  },
  {
    "id": "5IAamHvYYOTSNH4IYkcy3Q",
    "name": "Grain Craft Bar + Kitchen",
    "review_count": 257,
    "rating": 3.5,
    "price_range": "$$",
    "location": {
      "city": "Newark",
      "state": "DE"
    },
    "image_url": "https://s3-media2.fl.yelpcdn.com/bphoto/7_VX_W8N4ayiGREQHtNOCg/o.jpg",
    "alias": "newamerican",
    "title": "New American"
  },
  {
    "id": "VkHexf3mBy-8hu2vsSVd4g",
    "name": "Chiwa Bistro",
    "review_count": 188,
    "rating": 4.0,
    "price_range": "$$",
    "location": {
      "city": "Newark",
      "state": "DE"
    },
    "image_url": "https://s3-media1.fl.yelpcdn.com/bphoto/_4FvyudA2nHJeEItd0Whlg/o.jpg",
    "alias": "sushi",
    "title": "Sushi Bars"
  },
  {
    "id": "PGFzlPVRUz2rpR9DRAU7dQ",
    "name": "Murph's Irish Pub",
    "review_count": 10,
    "rating": 4.0,
    "price_range": "$",
    "location": {
      "city": "Wilmington",
      "state": "DE"
    },
    "image_url": "https://s3-media1.fl.yelpcdn.com/bphoto/3UUePyCql99nYLxBBvb7bA/o.jpg",
    "alias": "irish",
    "title": "Irish"
  },
  {
    "id": "eBo_ZnzWshp5Myx7ugbMhw",
    "name": "Terra Cafe & Grille",
    "review_count": 21,
    "rating": 4.0,
    "price_range": "$$",
    "location": {
      "city": "Wilmington",
      "state": "DE"
    },
    "image_url": "https://s3-media1.fl.yelpcdn.com/bphoto/SFjLduhhjpTKdRbRco5NKw/o.jpg",
    "alias": "mediterranean",
    "title": "Mediterranean"
  },
  {
    "id": "VlzexKYF6St7-N4tAoGBqg",
    "name": "Pinang Asian Cuisine",
    "review_count": 175,
    "rating": 4.0,
    "price_range": "$$",
    "location": {
      "city": "Newark",
      "state": "DE"
    },
    "image_url": "https://s3-media3.fl.yelpcdn.com/bphoto/qgGoCd16m7BGS89XhhC7Gg/o.jpg",
    "alias": "malaysian",
    "title": "Malaysian"
  },
  {
    "id": "IWlAJWCwAaeS-7A8B4Wikg",
    "name": "El Tapatio",
    "review_count": 125,
    "rating": 4.0,
    "price_range": "$$",
    "location": {
      "city": "Bear",
      "state": "DE"
    },
    "image_url": "https://s3-media1.fl.yelpcdn.com/bphoto/5jsS4xvO4ZrJRA9SATHm0A/o.jpg",
    "alias": "mexican",
    "title": "Mexican"
  },
  {
    "id": "YJgLVtH4IFzRTrlvTO2_Cw",
    "name": "Christa-Bell's Caribbean Cuisine",
    "review_count": 19,
    "rating": 4.0,
    "price_range": "$",
    "location": {
      "city": "Wilmington",
      "state": "DE"
    },
    "image_url": "https://s3-media1.fl.yelpcdn.com/bphoto/xnwG985QHT0EahorAvSHrA/o.jpg",
    "alias": "caribbean",
    "title": "Caribbean"
  },
  {
    "id": "kFx4Nq2WhoIlCx7Adrzo8Q",
    "name": "Se\u00f1or Tortilla",
    "review_count": 19,
    "rating": 4.5,
    "price_range": "$",
    "location": {
      "city": "Wilmington",
      "state": "DE"
    },
    "image_url": "https://s3-media1.fl.yelpcdn.com/bphoto/BVB1lMCW2KjPOim0JfeYhg/o.jpg",
    "alias": "mexican",
    "title": "Mexican"
  },
  {
    "id": "SkWaAf50KiN2m0zXfnAuiA",
    "name": "Luigi's Cafe",
    "review_count": 71,
    "rating": 4.5,
    "price_range": "$$",
    "location": {
      "city": "Hockessin",
      "state": "DE"
    },
    "image_url": "https://s3-media1.fl.yelpcdn.com/bphoto/lNrnMioCGhKxybLOJ9U01Q/o.jpg",
    "alias": "pizza",
    "title": "Pizza"
  },
  {
    "id": "5oEyGDeqeXeMfFXZdevtFg",
    "name": "Okura Japanese Cuisine Restaurant",
    "review_count": 76,
    "rating": 4.0,
    "price_range": "$$",
    "location": {
      "city": "Hockessin",
      "state": "DE"
    },
    "image_url": "https://s3-media2.fl.yelpcdn.com/bphoto/9EalgYkHUFHmTYWqpnwxmA/o.jpg",
    "alias": "japanese",
    "title": "Japanese"
  },
  {
    "id": "LTEpFgVru40dLvg1dsaD8g",
    "name": "Milk+Honey807",
    "review_count": 17,
    "rating": 4.0,
    "price_range": null,
    "location": {
      "city": "Wilmington",
      "state": "DE"
    },
    "image_url": "https://s3-media1.fl.yelpcdn.com/bphoto/4savi9-VnooUwFOLCPHSNA/o.jpg",
    "alias": "coffee",
    "title": "Coffee & Tea"
  },
  {
    "id": "NsTtjA9ZuJVr6pHApkOXsw",
    "name": "Anthony's Coal Fired Pizza & Wings",
    "review_count": 172,
    "rating": 3.5,
    "price_range": "$$",
    "location": {
      "city": "Wilmington",
      "state": "DE"
    },
    "image_url": "https://s3-media1.fl.yelpcdn.com/bphoto/TKdC7r7gsaqTY1Rk-L1b1g/o.jpg",
    "alias": "pizza",
    "title": "Pizza"
  },
  {
    "id": "OfUF725s1RaoaEOPY3hwZg",
    "name": "Poke Bros - Wilmington",
    "review_count": 52,
    "rating": 3.5,
    "price_range": null,
    "location": {
      "city": "Wilmington",
      "state": "DE"
    },
    "image_url": "https://s3-media1.fl.yelpcdn.com/bphoto/gSSLsiv2wYOYjUZAbkC6KQ/o.jpg",
    "alias": "poke",
    "title": "Poke"
  },
  {
    "id": "UljbSHv00PKS6YUnnCiSZA",
    "name": "Desert Rose",
    "review_count": 234,
    "rating": 4.0,
    "price_range": "$$",
    "location": {
      "city": "Media",
      "state": "PA"
    },
    "image_url": "https://s3-media2.fl.yelpcdn.com/bphoto/7KOKZrNTAFh20vWWctYosw/o.jpg",
    "alias": "mediterranean",
    "title": "Mediterranean"
  },
  {
    "id": "JEpsrFGIH4ixJJ4q2yUb_A",
    "name": "Godavari",
    "review_count": 182,
    "rating": 3.5,
    "price_range": "$$",
    "location": {
      "city": "Wilmington",
      "state": "DE"
    },
    "image_url": "https://s3-media3.fl.yelpcdn.com/bphoto/9zZwmSX6dXC0lhwypwyJbw/o.jpg",
    "alias": "indpak",
    "title": "Indian"
  },
  {
    "id": "KbB46s78-nkFqwWB0UbLxg",
    "name": "Lily Asian Cuisine Sushi & Grill",
    "review_count": 212,
    "rating": 4.0,
    "price_range": "$$",
    "location": {
      "city": "Kennett Square",
      "state": "PA"
    },
    "image_url": "https://s3-media3.fl.yelpcdn.com/bphoto/NEH3DD9XPff3nnd0PZrtFw/o.jpg",
    "alias": "sushi",
    "title": "Sushi Bars"
  },
  {
    "id": "jLoQf_d2DmBGTlccjkpEIA",
    "name": "Jimmy John's Pipin Hot Sandwiches",
    "review_count": 140,
    "rating": 4.0,
    "price_range": "$",
    "location": {
      "city": "West Chester",
      "state": "PA"
    },
    "image_url": "https://s3-media4.fl.yelpcdn.com/bphoto/auBboPVYyUuL-r4mvrIszw/o.jpg",
    "alias": "sandwiches",
    "title": "Sandwiches"
  },
  {
    "id": "oOKk4ZeB-wfwhZewXE4dQg",
    "name": "La Catrina",
    "review_count": 95,
    "rating": 4.0,
    "price_range": null,
    "location": {
      "city": "Media",
      "state": "PA"
    },
    "image_url": "https://s3-media1.fl.yelpcdn.com/bphoto/bTK2-nZRWXmVabdiR3jBUQ/o.jpg",
    "alias": "mexican",
    "title": "Mexican"
  },
  {
    "id": "7wQEzj-0yOpLiANNLuUflQ",
    "name": "Deepwater Diner",
    "review_count": 66,
    "rating": 4.0,
    "price_range": "$$",
    "location": {
      "city": "Penns Grove",
      "state": "NJ"
    },
    "image_url": "https://s3-media1.fl.yelpcdn.com/bphoto/ZfgM9OKUFljFSLztE6dTMQ/o.jpg",
    "alias": "diners",
    "title": "Diners"
  },
  {
    "id": "vnHL_GrlfdmptInzFTU_5w",
    "name": "Spark'd Creative Pastry",
    "review_count": 19,
    "rating": 4.5,
    "price_range": null,
    "location": {
      "city": "Wilmington",
      "state": "DE"
    },
    "image_url": "https://s3-media2.fl.yelpcdn.com/bphoto/XHbfpw2MqtQBhVDGu-z-BQ/o.jpg",
    "alias": "bakeries",
    "title": "Bakeries"
  },
  {
    "id": "h0jLNrV28BX3AC6yHaN2Kw",
    "name": "Cacciatori Pizza & Pasta",
    "review_count": 53,
    "rating": 4.5,
    "price_range": "$$",
    "location": {
      "city": "Newark",
      "state": "DE"
    },
    "image_url": "https://s3-media1.fl.yelpcdn.com/bphoto/i2eeCaAKJU9AI_n_6SR9CA/o.jpg",
    "alias": "pizza",
    "title": "Pizza"
  },
  {
    "id": "aAslC0l5mZB8oJNbld0byA",
    "name": "McGlynns Pub",
    "review_count": 67,
    "rating": 3.0,
    "price_range": "$$",
    "location": {
      "city": "Newark",
      "state": "DE"
    },
    "image_url": "https://s3-media2.fl.yelpcdn.com/bphoto/kEalo2wBXmr6vOVci3KJtA/o.jpg",
    "alias": "pubs",
    "title": "Pubs"
  },
  {
    "id": "t6KptbA1s8lILdX8SL7TXA",
    "name": "El Diablo Burritos",
    "review_count": 106,
    "rating": 4.5,
    "price_range": "$$",
    "location": {
      "city": "Newark",
      "state": "DE"
    },
    "image_url": "https://s3-media3.fl.yelpcdn.com/bphoto/zJ4ce61ph4y-rxc_WEZabQ/o.jpg",
    "alias": "mexican",
    "title": "Mexican"
  },
  {
    "id": "N8NB7lMryKMMf6SJUvzYVQ",
    "name": "Tony's Cafe",
    "review_count": 82,
    "rating": 4.0,
    "price_range": "$",
    "location": {
      "city": "Newark",
      "state": "DE"
    },
    "image_url": "https://s3-media2.fl.yelpcdn.com/bphoto/sCYuqhBghpwlK947ezw3gA/o.jpg",
    "alias": "pizza",
    "title": "Pizza"
  },
  {
    "id": "-PuFGEYEx1wPjqoxfE_k4Q",
    "name": "El Diablo Burritos",
    "review_count": 32,
    "rating": 4.5,
    "price_range": null,
    "location": {
      "city": "Wilmington",
      "state": "DE"
    },
    "image_url": "https://s3-media4.fl.yelpcdn.com/bphoto/tNkHk4USsB7jnQCSN9kZQA/o.jpg",
    "alias": "mexican",
    "title": "Mexican"
  },
  {
    "id": "I3yzZhtKfRMuUHWHDBqHGA",
    "name": "Capriotti's Sandwich Shop",
    "review_count": 52,
    "rating": 3.5,
    "price_range": "$",
    "location": {
      "city": "Wilmington",
      "state": "DE"
    },
    "image_url": "https://s3-media2.fl.yelpcdn.com/bphoto/Gh2UTfYBqMZjp96HwzxPwQ/o.jpg",
    "alias": "sandwiches",
    "title": "Sandwiches"
  },
  {
    "id": "YTVRcMtQ0-dPkITAHTiZ2w",
    "name": "Bella Vista Trattoria",
    "review_count": 9,
    "rating": 4.5,
    "price_range": "$",
    "location": {
      "city": "Wilmington",
      "state": "DE"
    },
    "image_url": "https://s3-media2.fl.yelpcdn.com/bphoto/H4DJgJdKqfxz_SgvkEic4g/o.jpg",
    "alias": "pizza",
    "title": "Pizza"
  },
  {
    "id": "gd15-d7r2joRjkcXywMWUw",
    "name": "LongHorn Steakhouse",
    "review_count": 33,
    "rating": 3.5,
    "price_range": null,
    "location": {
      "city": "Wilmington",
      "state": "DE"
    },
    "image_url": "https://s3-media2.fl.yelpcdn.com/bphoto/9-sYT7x5uXuN57ZoH_lN1Q/o.jpg",
    "alias": "steak",
    "title": "Steakhouses"
  },
  {
    "id": "7pnHswBOZ7HRTMJx3K_Yzw",
    "name": "Infinite Diner & Restaurant",
    "review_count": 29,
    "rating": 4.5,
    "price_range": null,
    "location": {
      "city": "Aston",
      "state": "PA"
    },
    "image_url": "https://s3-media3.fl.yelpcdn.com/bphoto/LrANQVCM75mJRyplH71nRA/o.jpg",
    "alias": "diners",
    "title": "Diners"
  },
  {
    "id": "0c7Z9lwbZvo-_VYs1aus_g",
    "name": "E Squared Cigar Lounge",
    "review_count": 11,
    "rating": 4.5,
    "price_range": null,
    "location": {
      "city": "Wilmington",
      "state": "DE"
    },
    "image_url": "https://s3-media2.fl.yelpcdn.com/bphoto/FgKoiaWk3YtGZpN7OLaByA/o.jpg",
    "alias": "cigarbars",
    "title": "Cigar Bars"
  },
  {
    "id": "sL_JrM7Llw5arZh0-JxZ2g",
    "name": "Zoup!",
    "review_count": 58,
    "rating": 4.0,
    "price_range": "$",
    "location": {
      "city": "Wilmington",
      "state": "DE"
    },
    "image_url": "https://s3-media3.fl.yelpcdn.com/bphoto/IVenSV5mW_2EXupwdNgsZg/o.jpg",
    "alias": "salad",
    "title": "Salad"
  },
  {
    "id": "L7Qik-V2W7zlIBobUSiyXw",
    "name": "The Gables At Chadds Ford",
    "review_count": 289,
    "rating": 3.0,
    "price_range": "$$",
    "location": {
      "city": "Chadds Ford",
      "state": "PA"
    },
    "image_url": "https://s3-media1.fl.yelpcdn.com/bphoto/9qJf6hJUwPJq3AqMubL22A/o.jpg",
    "alias": "newamerican",
    "title": "New American"
  },
  {
    "id": "aqLHq0LCuqgVVjcsjeyTbA",
    "name": "TGI Fridays",
    "review_count": 91,
    "rating": 2.0,
    "price_range": "$$",
    "location": {
      "city": "Wilmington",
      "state": "DE"
    },
    "image_url": "https://s3-media2.fl.yelpcdn.com/bphoto/4AISC_0zHvLTIJqUSDcOEw/o.jpg",
    "alias": "tradamerican",
    "title": "American"
  },
  {
    "id": "UGHVZSx-t_bVeMfFE-MYwQ",
    "name": "La Poblanita",
    "review_count": 33,
    "rating": 4.0,
    "price_range": "$$",
    "location": {
      "city": "Wilmington",
      "state": "DE"
    },
    "image_url": "https://s3-media3.fl.yelpcdn.com/bphoto/baHEuijYzKeTfZbm4PM5Dw/o.jpg",
    "alias": "mexican",
    "title": "Mexican"
  },
  {
    "id": "bKeKYs8NycSzIYvpT_6ncg",
    "name": "Greenhill Deli-Pizza",
    "review_count": 16,
    "rating": 4.5,
    "price_range": "$",
    "location": {
      "city": "Wilmington",
      "state": "DE"
    },
    "image_url": "https://s3-media4.fl.yelpcdn.com/bphoto/hOj6mIDnfLWo1uSENbHQjA/o.jpg",
    "alias": "delis",
    "title": "Delis"
  },
  {
    "id": "OwBgQo86CL2GmGX0OIUEEw",
    "name": "The Cheesecake Factory",
    "review_count": 374,
    "rating": 3.5,
    "price_range": "$$",
    "location": {
      "city": "Newark",
      "state": "DE"
    },
    "image_url": "https://s3-media2.fl.yelpcdn.com/bphoto/IeWHvJU3bTDLSwhiiLA_BA/o.jpg",
    "alias": "desserts",
    "title": "Desserts"
  },
  {
    "id": "RVLF2RaStLkJiQCqBHknDw",
    "name": "Mom Mom's Kitchen and Polish Food Cart",
    "review_count": 112,
    "rating": 5.0,
    "price_range": "$$",
    "location": {
      "city": "Philadelphia",
      "state": "PA"
    },
    "image_url": "https://s3-media1.fl.yelpcdn.com/bphoto/aDkbKkjWsKr1yAFDaGkfYA/o.jpg",
    "alias": "polish",
    "title": "Polish"
  },
  {
    "id": "VKUUdRVElaufzQAI4OcxLQ",
    "name": "Semo's Cart",
    "review_count": 16,
    "rating": 4.5,
    "price_range": "$",
    "location": {
      "city": "Wilmington",
      "state": "DE"
    },
    "image_url": "https://s3-media2.fl.yelpcdn.com/bphoto/H7H6m7ppUxIDwxNNHkGhgQ/o.jpg",
    "alias": "greek",
    "title": "Greek"
  },
  {
    "id": "msp4nQ9YPzSA7d6fVbSrAA",
    "name": "Tree Garden",
    "review_count": 71,
    "rating": 3.5,
    "price_range": "$$",
    "location": {
      "city": "Wilmington",
      "state": "DE"
    },
    "image_url": "https://s3-media4.fl.yelpcdn.com/bphoto/YEMidZM1jTx5zGCdtBmNjg/o.jpg",
    "alias": "japanese",
    "title": "Japanese"
  },
  {
    "id": "OGbdvZAvSZ30l8sde9GSwQ",
    "name": "Mr. Pasta",
    "review_count": 41,
    "rating": 4.0,
    "price_range": "$",
    "location": {
      "city": "Wilmington",
      "state": "DE"
    },
    "image_url": "https://s3-media2.fl.yelpcdn.com/bphoto/hba-vVDgDtGShahqimYO7Q/o.jpg",
    "alias": "italian",
    "title": "Italian"
  },
  {
    "id": "geMAqLDlNwpZG9ElVJ49Fg",
    "name": "Rockwood Park",
    "review_count": 7,
    "rating": 4.5,
    "price_range": null,
    "location": {
      "city": "Wilmington",
      "state": "DE"
    },
    "image_url": "https://s3-media4.fl.yelpcdn.com/bphoto/wq1JxM8h7MDEberbLjwgbg/o.jpg",
    "alias": "parks",
    "title": "Parks"
  },
  {
    "id": "0dWrbjWlPDBq3WpDq_bCxQ",
    "name": "Taqueria Moroleon",
    "review_count": 153,
    "rating": 3.5,
    "price_range": "$$",
    "location": {
      "city": "Avondale",
      "state": "PA"
    },
    "image_url": "https://s3-media4.fl.yelpcdn.com/bphoto/EGMpBraES1eMiMX8ohY0jw/o.jpg",
    "alias": "mexican",
    "title": "Mexican"
  },
  {
    "id": "L5U9dBXYKNDyWp4lk9j9QQ",
    "name": "Iron Hill Brewery & Restaurant",
    "review_count": 497,
    "rating": 3.5,
    "price_range": "$$",
    "location": {
      "city": "Media",
      "state": "PA"
    },
    "image_url": "https://s3-media2.fl.yelpcdn.com/bphoto/1gqgECHD72d_7DEE-x7Efg/o.jpg",
    "alias": "newamerican",
    "title": "New American"
  },
  {
    "id": "LVNstdIUhjwXOQjIB00rjw",
    "name": "Arugula Ristorante Italiano",
    "review_count": 108,
    "rating": 4.0,
    "price_range": "$$",
    "location": {
      "city": "Glen Mills",
      "state": "PA"
    },
    "image_url": "https://s3-media4.fl.yelpcdn.com/bphoto/-bXfAofSkooFFlSi737Bng/o.jpg",
    "alias": "italian",
    "title": "Italian"
  },
  {
    "id": "UKdGOYmBv7z5DgiFyJlLDQ",
    "name": "Chick-fil-A",
    "review_count": 62,
    "rating": 4.5,
    "price_range": "$",
    "location": {
      "city": "Bear",
      "state": "DE"
    },
    "image_url": "https://s3-media4.fl.yelpcdn.com/bphoto/6rWHtg2mWBCP3zW7JPuarw/o.jpg",
    "alias": "hotdogs",
    "title": "Fast Food"
  },
  {
    "id": "uSRW0_iRB_Ri_qO_fz9VjA",
    "name": "Two Stones Pub",
    "review_count": 64,
    "rating": 3.5,
    "price_range": "$$",
    "location": {
      "city": "Hockessin",
      "state": "DE"
    },
    "image_url": "https://s3-media2.fl.yelpcdn.com/bphoto/XIWC2CRsT12mW89MLvrQFA/o.jpg",
    "alias": "pubs",
    "title": "Pubs"
  },
  {
    "id": "0y5x2QxXdeHvs_m0hoO84Q",
    "name": "Aureas Mexican Restaurant",
    "review_count": 86,
    "rating": 4.0,
    "price_range": "$$",
    "location": {
      "city": "Claymont",
      "state": "DE"
    },
    "image_url": "https://s3-media2.fl.yelpcdn.com/bphoto/7PAH3pthb0bgqRlPEaoE4w/o.jpg",
    "alias": "mexican",
    "title": "Mexican"
  },
  {
    "id": "EX-ioSwVMafEBVt-xIzcxA",
    "name": "Ristorante Gennaro",
    "review_count": 86,
    "rating": 4.0,
    "price_range": "$$",
    "location": {
      "city": "Aston",
      "state": "PA"
    },
    "image_url": "https://s3-media4.fl.yelpcdn.com/bphoto/aOlxFPav4Y_yexMM5PxZGw/o.jpg",
    "alias": "italian",
    "title": "Italian"
  },
  {
    "id": "_BqPnypB6wPZRPbEqtKy6A",
    "name": "Grotto Pizza - Concord Pike",
    "review_count": 71,
    "rating": 2.5,
    "price_range": "$$",
    "location": {
      "city": "Wilmington",
      "state": "DE"
    },
    "image_url": "https://s3-media3.fl.yelpcdn.com/bphoto/4EJQ03OFYX6LBlvmdycGQQ/o.jpg",
    "alias": "pizza",
    "title": "Pizza"
  },
  {
    "id": "rwPdi2Ept5LcVYIRUjj53Q",
    "name": "Angel's Restaurant",
    "review_count": 46,
    "rating": 4.0,
    "price_range": "$",
    "location": {
      "city": "Wilmington",
      "state": "DE"
    },
    "image_url": "https://s3-media3.fl.yelpcdn.com/bphoto/-nKKPYThCfG7yqRxI7kKGw/o.jpg",
    "alias": "diners",
    "title": "Diners"
  },
  {
    "id": "6ZLYT9wKdxrvqXgpkpXhLA",
    "name": "Delaware Museum of Nature and Science",
    "review_count": 21,
    "rating": 4.0,
    "price_range": null,
    "location": {
      "city": "Wilmington",
      "state": "DE"
    },
    "image_url": "https://s3-media1.fl.yelpcdn.com/bphoto/s29Wni32NenyKJQZkFkZ2g/o.jpg",
    "alias": "museums",
    "title": "Museums"
  },
  {
    "id": "4cONlC4f4tIId28cnGno7g",
    "name": "Kaboburritos",
    "review_count": 86,
    "rating": 4.5,
    "price_range": "$$",
    "location": {
      "city": "Kennett Square",
      "state": "PA"
    },
    "image_url": "https://s3-media4.fl.yelpcdn.com/bphoto/h6TzO4uhvQSrKdFJoUfQ9A/o.jpg",
    "alias": "mediterranean",
    "title": "Mediterranean"
  },
  {
    "id": "hFMud7XDefdWM1d-p1B2dQ",
    "name": "Bahama Breeze",
    "review_count": 252,
    "rating": 3.5,
    "price_range": "$$",
    "location": {
      "city": "Newark",
      "state": "DE"
    },
    "image_url": "https://s3-media1.fl.yelpcdn.com/bphoto/7ubNHhyQgS18CTiA9gf-LA/o.jpg",
    "alias": "bars",
    "title": "Bars"
  },
  {
    "id": "l-TU-Msfao5Np-vjBoX8MQ",
    "name": "Trattoria La Tavola",
    "review_count": 42,
    "rating": 4.0,
    "price_range": null,
    "location": {
      "city": "Kennett Square",
      "state": "PA"
    },
    "image_url": "https://s3-media3.fl.yelpcdn.com/bphoto/lgiDjDqC0gkT6MB5vPAKzQ/o.jpg",
    "alias": "italian",
    "title": "Italian"
  },
  {
    "id": "3wghyH3V0jmAQKOnBTdrUQ",
    "name": "Woodside Farm Creamery",
    "review_count": 254,
    "rating": 4.5,
    "price_range": "$",
    "location": {
      "city": "Hockessin",
      "state": "DE"
    },
    "image_url": "https://s3-media3.fl.yelpcdn.com/bphoto/2yI21iyoEoHnSOKgxBuAhA/o.jpg",
    "alias": "icecream",
    "title": "Ice Cream & Frozen Yogurt"
  },
  {
    "id": "Rym1VW90lJR-c-x7N8Q64A",
    "name": "Auburn Road Vineyard and Winery",
    "review_count": 147,
    "rating": 4.0,
    "price_range": "$$",
    "location": {
      "city": "Pilesgrove",
      "state": "NJ"
    },
    "image_url": "https://s3-media3.fl.yelpcdn.com/bphoto/YR_Bki65YmSeOd04OM7eNQ/o.jpg",
    "alias": "wineries",
    "title": "Wineries"
  },
  {
    "id": "LCxZ5RkXU9pQvKLInTLCrQ",
    "name": "Car-Mira's Deli",
    "review_count": 54,
    "rating": 4.5,
    "price_range": "$",
    "location": {
      "city": "Boothwyn",
      "state": "PA"
    },
    "image_url": "https://s3-media1.fl.yelpcdn.com/bphoto/xNQvNsStQc2uBTx4nxMKzw/o.jpg",
    "alias": "delis",
    "title": "Delis"
  },
  {
    "id": "l8Js8v-5wjAmIRau62A7Ng",
    "name": "Bar XIII Delaware",
    "review_count": 21,
    "rating": 4.5,
    "price_range": "$$$",
    "location": {
      "city": "Wilmington",
      "state": "DE"
    },
    "image_url": "https://s3-media3.fl.yelpcdn.com/bphoto/cU3MGYALIxJ_zrrr9KElpg/o.jpg",
    "alias": "musicvenues",
    "title": "Music Venues"
  },
  {
    "id": "Ha6_3VTMlnc88g1anzplhQ",
    "name": "Laspada's Original Steaks and Hoagies",
    "review_count": 43,
    "rating": 4.5,
    "price_range": "$",
    "location": {
      "city": "Glen Mills",
      "state": "PA"
    },
    "image_url": "https://s3-media4.fl.yelpcdn.com/bphoto/sLRQN3XD5FW9lJfGoh9MUw/o.jpg",
    "alias": "sandwiches",
    "title": "Sandwiches"
  },
  {
    "id": "4B1NLfBJRfeJ_7bKVTNa_w",
    "name": "Evelyn's Soul Food",
    "review_count": 61,
    "rating": 3.5,
    "price_range": null,
    "location": {
      "city": "Wilmington",
      "state": "DE"
    },
    "image_url": "https://s3-media1.fl.yelpcdn.com/bphoto/zwIShd9tm-DF36ox0ys_kA/o.jpg",
    "alias": "soulfood",
    "title": "Soul Food"
  },
  {
    "id": "3VZsvccKrkvmBshoAFrgGw",
    "name": "Dominican Cafe",
    "review_count": 19,
    "rating": 4.5,
    "price_range": "$",
    "location": {
      "city": "Wilmington",
      "state": "DE"
    },
    "image_url": "https://s3-media4.fl.yelpcdn.com/bphoto/vVgY1l7KyfXRQUHRJ_XxLQ/o.jpg",
    "alias": "dominican",
    "title": "Dominican"
  },
  {
    "id": "5SiRf11-pruaeDoF37jJAA",
    "name": "Manbroso's ToGo",
    "review_count": 46,
    "rating": 4.5,
    "price_range": null,
    "location": {
      "city": "Aston",
      "state": "PA"
    },
    "image_url": "https://s3-media1.fl.yelpcdn.com/bphoto/UvY2jdCZEh8SKI3xZp7kDw/o.jpg",
    "alias": "chicken_wings",
    "title": "Chicken Wings"
  },
  {
    "id": "5vNalmeJRlPQR0HGfyCq7A",
    "name": "Caf\u00e9 Valentina",
    "review_count": 65,
    "rating": 3.5,
    "price_range": "$$",
    "location": {
      "city": "Wilmington",
      "state": "DE"
    },
    "image_url": "https://s3-media4.fl.yelpcdn.com/bphoto/vUpz2LA1tE6Z8c03PsDzCA/o.jpg",
    "alias": "italian",
    "title": "Italian"
  },
  {
    "id": "JbS_D8lxOm4UWa-yC4z5NA",
    "name": "Red Sombrero - Kennett Square",
    "review_count": 96,
    "rating": 4.0,
    "price_range": "$",
    "location": {
      "city": "Kennett Square",
      "state": "PA"
    },
    "image_url": "https://s3-media2.fl.yelpcdn.com/bphoto/jQmJkYfLSvkp-flrK8ygiA/o.jpg",
    "alias": "mexican",
    "title": "Mexican"
  },
  {
    "id": "HuUdDS993Qqshv8UA_rRRw",
    "name": "PureBread Deli",
    "review_count": 73,
    "rating": 4.5,
    "price_range": "$$",
    "location": {
      "city": "Glen Mills",
      "state": "PA"
    },
    "image_url": "https://s3-media3.fl.yelpcdn.com/bphoto/gbfdY7wKzFRmGYLFu5SMVw/o.jpg",
    "alias": "delis",
    "title": "Delis"
  },
  {
    "id": "Cj1FrT7zkbhboZ6nDkXmnw",
    "name": "Caffe Gelato",
    "review_count": 356,
    "rating": 3.5,
    "price_range": "$$",
    "location": {
      "city": "Newark",
      "state": "DE"
    },
    "image_url": "https://s3-media3.fl.yelpcdn.com/bphoto/v9YhRZFmhZjCYzlNnGjlog/o.jpg",
    "alias": "italian",
    "title": "Italian"
  },
  {
    "id": "gPnjAS3OArRGNCwMKSg_0Q",
    "name": "Delaware Memorial Bridge",
    "review_count": 97,
    "rating": 4.0,
    "price_range": null,
    "location": {
      "city": "Wilmington",
      "state": "DE"
    },
    "image_url": "https://s3-media2.fl.yelpcdn.com/bphoto/V3tcw-nguX4uUDecLo5Hqw/o.jpg",
    "alias": "landmarks",
    "title": "Landmarks & Historical Buildings"
  },
  {
    "id": "WjfKT9KFRIufHXQkXp8Kzg",
    "name": "Hong Hing Chinese Restaurant",
    "review_count": 43,
    "rating": 3.5,
    "price_range": "$",
    "location": {
      "city": "Wilmington",
      "state": "DE"
    },
    "image_url": "https://s3-media2.fl.yelpcdn.com/bphoto/96062jzf5iiIdNmLr1c7cg/o.jpg",
    "alias": "chinese",
    "title": "Chinese"
  },
  {
    "id": "VCZHpKjSEFZzJre79PNBVA",
    "name": "Brandywine Park",
    "review_count": 18,
    "rating": 4.5,
    "price_range": null,
    "location": {
      "city": "Wilmington",
      "state": "DE"
    },
    "image_url": "https://s3-media1.fl.yelpcdn.com/bphoto/n2T_7LpULE8DVtnm36dqqg/o.jpg",
    "alias": "parks",
    "title": "Parks"
  },
  {
    "id": "itUXZ3npt6ETd_y87028-A",
    "name": "Burrito Express",
    "review_count": 69,
    "rating": 4.5,
    "price_range": "$",
    "location": {
      "city": "Bear",
      "state": "DE"
    },
    "image_url": "https://s3-media3.fl.yelpcdn.com/bphoto/2LcE9alPzf_wlknhQXgxRg/o.jpg",
    "alias": "mexican",
    "title": "Mexican"
  },
  {
    "id": "EbkqfY7abtLHhoiII82f9w",
    "name": "Timothy's of Newark",
    "review_count": 112,
    "rating": 3.5,
    "price_range": "$$",
    "location": {
      "city": "Newark",
      "state": "DE"
    },
    "image_url": "https://s3-media2.fl.yelpcdn.com/bphoto/q10mp9ndQL2YyQw3ueCevQ/o.jpg",
    "alias": "newamerican",
    "title": "New American"
  },
  {
    "id": "NJGNxk0XVwHcqXqXGbvqVg",
    "name": "Taqueria Atexcac",
    "review_count": 71,
    "rating": 4.5,
    "price_range": null,
    "location": {
      "city": "Newark",
      "state": "DE"
    },
    "image_url": "https://s3-media3.fl.yelpcdn.com/bphoto/0MeYTYs0nWWuoPEgZhiozA/o.jpg",
    "alias": "mexican",
    "title": "Mexican"
  },
  {
    "id": "koYe0Xt78lAigCvFRiCw8w",
    "name": "Zoup!",
    "review_count": 97,
    "rating": 4.5,
    "price_range": "$",
    "location": {
      "city": "Newark",
      "state": "DE"
    },
    "image_url": "https://s3-media4.fl.yelpcdn.com/bphoto/QyvLWO6S4TnQW3V20Ln0fA/o.jpg",
    "alias": "salad",
    "title": "Salad"
  },
  {
    "id": "kMUraE5ZsTNathCnXNITxg",
    "name": "Home Base Delaware",
    "review_count": 14,
    "rating": 3.5,
    "price_range": null,
    "location": {
      "city": "Wilmington",
      "state": "DE"
    },
    "image_url": "https://s3-media2.fl.yelpcdn.com/bphoto/FpaxmdmMcXVhJ5i4H7WOIg/o.jpg",
    "alias": "sportsbars",
    "title": "Sports Bars"
  },
  {
    "id": "jYUrNKJ5PjC7BK03z8Wsvw",
    "name": "Hell\u2019s Belles Bake Shop",
    "review_count": 5,
    "rating": 4.5,
    "price_range": null,
    "location": {
      "city": "Wilmington",
      "state": "DE"
    },
    "image_url": "https://s3-media2.fl.yelpcdn.com/bphoto/bejxXjtTxP29od5W6YZOug/o.jpg",
    "alias": "coffee",
    "title": "Coffee & Tea"
  },
  {
    "id": "DbPVnihpkXXWkepRzmTPfg",
    "name": "La Belle Epoque Cafe",
    "review_count": 191,
    "rating": 4.0,
    "price_range": "$$",
    "location": {
      "city": "Media",
      "state": "PA"
    },
    "image_url": "https://s3-media3.fl.yelpcdn.com/bphoto/PyQQHSFR9F1kGX0MeC9ozA/o.jpg",
    "alias": "french",
    "title": "French"
  },
  {
    "id": "N1tV2ZS8wFeibc5q_v1oXA",
    "name": "Casa Mia",
    "review_count": 82,
    "rating": 4.0,
    "price_range": "$$",
    "location": {
      "city": "Middletown",
      "state": "PA"
    },
    "image_url": "https://s3-media2.fl.yelpcdn.com/bphoto/ijeAxHKJ2EQnzlKlI-xMog/o.jpg",
    "alias": "italian",
    "title": "Italian"
  },
  {
    "id": "1gxvNZ1ssSDJuMr18VLMQw",
    "name": "Opa! Opa!",
    "review_count": 27,
    "rating": 4.0,
    "price_range": "$$",
    "location": {
      "city": "Wilmington",
      "state": "DE"
    },
    "image_url": "https://s3-media1.fl.yelpcdn.com/bphoto/VO0uvdwCghxvou5X1zxDdQ/o.jpg",
    "alias": "greek",
    "title": "Greek"
  },
  {
    "id": "gV-u_5SA-htqslt2yUaLgg",
    "name": "Negril Caribbean Restaurant",
    "review_count": 11,
    "rating": 4.5,
    "price_range": null,
    "location": {
      "city": "Wilmington",
      "state": "DE"
    },
    "image_url": "https://s3-media2.fl.yelpcdn.com/bphoto/lFvCS0qDzP794W37sBNK_g/o.jpg",
    "alias": "caribbean",
    "title": "Caribbean"
  },
  {
    "id": "m3tc5lXPk0VQB8gjYANXIQ",
    "name": "Eggspectation Christiana",
    "review_count": 337,
    "rating": 3.5,
    "price_range": "$$",
    "location": {
      "city": "Newark",
      "state": "DE"
    },
    "image_url": "https://s3-media1.fl.yelpcdn.com/bphoto/MusFOD6JsONdoKFtpiu3VA/o.jpg",
    "alias": "desserts",
    "title": "Desserts"
  },
  {
    "id": "Aya2FOJOTMoKB_-ccw1gWQ",
    "name": "Little Goat Coffee Roasting",
    "review_count": 83,
    "rating": 5.0,
    "price_range": "$$",
    "location": {
      "city": "Newark",
      "state": "DE"
    },
    "image_url": "https://s3-media3.fl.yelpcdn.com/bphoto/G5IVRpQwNfud4PQiid90lg/o.jpg",
    "alias": "coffeeroasteries",
    "title": "Coffee Roasteries"
  },
  {
    "id": "FK1CWr9Hr8S7I0peDkQksw",
    "name": "Sang Tong Thai",
    "review_count": 25,
    "rating": 4.5,
    "price_range": null,
    "location": {
      "city": "Kennett Square",
      "state": "PA"
    },
    "image_url": "https://s3-media1.fl.yelpcdn.com/bphoto/s-5lQhJRhEqJHV2PRV8Jpw/o.jpg",
    "alias": "thai",
    "title": "Thai"
  }
]